region,code,name,address,categories,Unnamed: 0,id,google_place_name,locality,country,administrative_area_level_1,administrative_area_level_2,international_phone_number,fax_number,type,website,latitude,longitude,added_time,place_type,is_fax_enabled,fax_numbers,fax_keywords
Abitibi Temiscamingue,0077X,HOPITAL PSYCHIATRIQUE DE MALARTIC,"1141 RUE ROYALE CP 800, MALARTIC, QC, J0Y 1Z0","1,3,6,8",0.0,ChIJc_hfxn6tIE0Rz6wItmfvifM,Hôpital en santé mentale et CLSC de Malartic,Malartic,CA,QC,J0Y 1Z0,+1 819-825-5858,,hospital,https://www.sante.gouv.qc.ca/en/repertoire-ressources/ressource/?nofiche=954,48.14122889999999,-78.1286676,1745790598,hospital,0,"[""8197574330""]","{""8197574330"": ""admin""}"
Abitibi Temiscamingue,0150X,HOPITAL D'AMOS,"622 4E RUE O, AMOS, QC, J9T 2S2","0,1,2,3,4,6,7,8",1.0,ChIJ8_e2nZGSIE0RQHTMxFaGFwk,Hôpital d’Amos,Amos,CA,QC,J9T 2S2,+1 819-732-3341,,hospital,http://www.sante.gouv.qc.ca/en/repertoire-ressources/ressource/?nofiche=1208,48.5747602,-78.1254891,1745790598,hospital,0,"[""8197323056"", ""8197326484""]","{""8197323056"": ""general inquiries (reception/accueil)"", ""8197326484"": ""medical records (archives)""}"
Abitibi Temiscamingue,0152X,CENTRE MULTI SSS DE LA SARRE,"679 2E RUE CP 6000, LA SARRE, QC, J9Z 2X7","1,2,3,4,6,7,8",2.0,ChIJA0oPPnh5IU0R6oY1vw_EGAY,Centre Hospitalier De La Sarre,La Sarre,CA,QC,J9Z 2X7,+1 819-333-2311,,hospital,http://www.sante.gouv.qc.ca/en/repertoire-ressources/ressource/?nofiche=699,48.7864561,-79.198577,1745790598,hospital,0,"[""8193332755"", ""8193334316""]","{""8193332755"": ""819-333-2311."", ""8193334316"": ""819-333-2311.""}"
Abitibi Temiscamingue,0153X,HOPITAL DE ROUYN-NORANDA,"4 9E RUE, ROUYN-NORANDA, QC, J9X 2B2","0,1,2,3,4,6,7,8",3.0,ChIJF41xFJozIU0R751OraSgjMc,Hospital of Rouyn-Noranda - Juteau-Lemay Building,Rouyn-Noranda,CA,QC,J9X 2B2,+1 819-764-5131,,hospital,https://www.cisss-at.gouv.qc.ca/,48.2435816,-79.0194841,1745790598,hospital,0,"[""819-764-4211"", ""8197644211"", ""8197642927"", ""8197621057""]","{""819-764-4211"": ""general inquiries"", ""8197644211"": ""general inquiries"", ""8197642927"": ""medical records (archives)"", ""8197621057"": ""reception (admin/communications to reception)""}"
Abitibi Temiscamingue,0154X,HOPITAL DE VAL-D'OR,"725 6E RUE, VAL-D'OR, QC, J9P 3Y1","0,1,2,3,4,6,7,8",4.0,ChIJZxWIxxFT30wR3OYQ6a73BHU,Hôpital de Val-d’Or,Val-d'Or,CA,QC,J9P 3Y1,+1 819-825-5858,,hospital,http://www.cisss-at.gouv.qc.ca/,48.0966532,-77.7964539,1745790598,hospital,0,"[""819-825-7919"", ""8198257812"", ""8198257921"", ""8198257919""]","{""8198257812"": ""general inquiries (reception)"", ""8198257921"": ""medical records (archives)"", ""819-825-7919"": ""unspecified/unknown department"", ""8198257919"": ""unspecified/unknown department""}"
Abitibi Temiscamingue,0155X,CENTRE MULTI SSS DE VILLE-MARIE,"22 NOTRE-DAME N, VILLE-MARIE, QC, J9V 1W8","1,2,3,4,6,7,8",5.0,ChIJK40IRaJBJk0RFifVvlYtO9s,Centre de Santé et de services sociaux du Lac-Témiscamingue,Ville-Marie,CA,QC,J9V 1W8,+1 819-629-2420,,hospital,https://www.cisss-at.gouv.qc.ca/,47.33327469999999,-79.44437010000001,1745790598,hospital,0,[],{}
Abitibi Temiscamingue,0460X,CENTRE MULTI SSS DE MACAMIC,"169 7E AVENUE E, MACAMIC, QC, J0Z 2S0","2,3,4,8",6.0,ChIJz7wEMWNzIU0RkDFq_Z-RSZk,Clsc,Macamic,CA,QC,J0Z 2S0,+1 819-782-4661,,hospital,,48.7531887,-78.9836365,1745790598,hospital,0,"[""8197822400""]","{""8197822400"": ""general inquiries (primary/general fax number for the facility)""}"
Abitibi Temiscamingue,0782X,CENTRE MULTI SSS DE SENNETERRE,"961 DE LA CLINIQUE CP 4000, SENNETERRE, QC, J0Y 2M0","1,3,4,7",7.0,ChIJG9BybJIW30wRPg2udXmJYmQ,Centre de santé de Senneterre,Senneterre,CA,QC,J0Y 2M0,+1 819-825-5858,,hospital,http://www.cisss-at.gouv.qc.ca/,48.3845597,-77.2529078,1745790598,hospital,0,"[""819-737-3122"", ""8197373122""]","{""819-737-3122"": ""reception / general inquiries"", ""8197373122"": ""reception / general inquiries""}"
Abitibi Temiscamingue,0817X,CSSS DE TEMISCAMING-ET-DE-KIPAWA,"180 ANVIK CP 760, TEMISCAMING, QC, J0Z 3R0","1,3,4,5,6,7",8.0,ChIJeVHjVGlvKE0RClSEYMXjQiU,Info-Sante Clsc-Cs,Temiscaming,CA,QC,J0Z 3R0,,,hospital,,46.718235,-79.10011999999999,1745790598,hospital,0,"[""8196279497""]","{""8196279497"": ""general inquiries, admin""}"
Abitibi Temiscamingue,10115,MDA MA DE ROUYN-NORANDA,"1155 RUE PERREAULT E, ROUYN-NORANDA, QC, J9X 0C4",,9.0,ChIJRYnrMgAzIU0RgjTZQP2PuNk,Maison des aînés et alternative de Rouyn-Noranda (2022),Rouyn-Noranda,CA,QC,J9X 0G8,+1 873-475-0168,,pharmacy,,48.238421,-78.98974199999999,1745790598,clinic,0,[],{}
Abitibi Temiscamingue,10815,CHSLD DE LA SARRE,"22 1E AVENUE CP 1, LA SARRE, QC, J9Z 1C4",,10.0,ChIJGwan-xp5IU0RG6dJ6F0NaFg,CHSLD,La Sarre,CA,QC,J9Z 1C4,+1 819-333-5525,,hospital,,48.810184,-79.203558,1745790598,hospital,0,"[""8193334316""]","{""8193334316"": ""general inquiries""}"
Abitibi Temiscamingue,10923,CENTRE MULTI SSS L'ETAPE,"700 BOUL FOREST, VAL-D'OR, QC, J9P 2L3",,11.0,ChIJAQUmThtT30wRuXaB7nwmdjE,Centre jeunesse de l'Abitibi-Témiscamingue,Val-d'Or,CA,QC,J9P 2L3,+1 819-825-0002,,clinic,,48.0980776,-77.7886558,1745790598,clinic,0,"[""8198252176"", ""8198255132""]","{""8198252176"": ""child protection communications"", ""8198255132"": ""general communications related to youth services""}"
Abitibi Temiscamingue,10933,CRDP ET CRDI-TSA D'AMOS,"841 3E RUE O, AMOS, QC, J9T 2T4",,12.0,ChIJmZlgfpCSIE0RVFvdGV_BiHA,Clair Foyer Inc,Amos,CA,QC,J9T 2T4,+1 819-732-6511,,hospital,,48.57726009999999,-78.1249801,1745790598,hospital,0,"[""8197320922""]","{""8197320922"": ""general inquiries""}"
Abitibi Temiscamingue,11045,CHSLD DE MALARTIC,"987 RUE DES PINS CP 639, MALARTIC, QC, J0Y 1Z0",,13.0,ChIJhXPDAn-tIE0R6MfmAuivcJQ,Centre d'hébergement de Malartic,Malartic,CA,QC,J0Y 1Z0,+1 819-825-5858,,hospital,,48.141509,-78.128411,1745790598,hospital,0,"[""8197574330""]","{""8197574330"": ""general inquiries (main hospital fax; specific departmental purposes not indicated)""}"
Abitibi Temiscamingue,11515,CHSLD DE ROUYN-NORANDA,"512 AV RICHARD, ROUYN-NORANDA, QC, J9X 4M1",,14.0,ChIJ_TF6bAszIU0Rhxdnzv3otk0,CHSLD Pie-XII,Rouyn-Noranda,CA,QC,J9X 4M1,+1 819-762-0908,,hospital,,48.2286639,-79.01563329999999,1745790598,hospital,0,[],{}
Abitibi Temiscamingue,12395,CHSLD D'AMOS,"612 5E AVENUE O, AMOS, QC, J9T 4L3",,15.0,ChIJNciuj4uSIE0RDsg7d4h-UZA,CLSC/CHSLD Les Eskers - CLSC De L'Elan,Amos,CA,QC,J9T 2N2,+1 819-732-3271,,hospital,http://www.cisss-at.gouv.qc.ca/,48.5737767,-78.1180385,1745790598,hospital,0,"[""8197327526""]","{""8197327526"": ""general inquiries""}"
Abitibi Temiscamingue,12415,CHSLD DE VAL-D'OR,"1212 AV BREBEUF, VAL-D'OR, QC, J9P 2C9",,16.0,ChIJLb80xg1T30wRJA6BY4Ly6eE,Centre d'hébergement de Val-d'Or,Val-d'Or,CA,QC,J9P 2C9,+1 819-825-5858,,hospital,,48.1018506,-77.7986511,1745790598,hospital,0,"[""8198257893""]","{""8198257893"": ""general inquiries / administration""}"
Abitibi Temiscamingue,12425,CHSLD PALMAROLLE,"136 PRINCIPALE E CP 70, PALMAROLLE, QC, J0Z 3C0",,17.0,ChIJxcjLBGZlIU0RKRjNQ3CPtQg,CLSC Palmarolle,Palmarolle,CA,QC,J0Z 3C0,+1 819-787-2216,,hospital,http://www.sante.gouv.qc.ca/repertoire-ressources/ressource/?nofiche=471732,48.6635934,-79.1998285,1745790598,hospital,0,"[""8197873293""]","{""8197873293"": ""general inquiries / main administrative fax""}"
Abitibi Temiscamingue,14933,CRDP ET CRDI-TSA DE ROUYN-NORANDA,"100 CH DR LEMAY, ROUYN-NORANDA, QC, J9X 5T2",,18.0,ChIJuRgL6nIzIU0Ruq9e0oKICvk,Centre De Readaptation La Maison,Rouyn-Noranda,CA,QC,J9X 5T2,+1 819-762-6592,,hospital,https://sante.gouv.qc.ca/repertoire-ressources/ressource/?nofiche=198&ch_type=&bt_rechType=&theme=autres-ressources&ch_choixReg=&ch_rayon=0&ch_code=&page=310,48.2253979,-79.02105949999999,1745790598,hospital,0,"[""8197621230""]","{""8197621230"": ""general administration (for centre de r\u00e9adaptation pour les jeunes en difficult\u00e9 d'adaptation, not the centre de r\u00e9adaptation en d\u00e9ficience physique)""}"
Abitibi Temiscamingue,15185,CHSLD DE VILLE-MARIE,"37 SAINT-JEAN-BAPTISTE S, VILLE-MARIE, QC, J9V 2A9",,19.0,ChIJi-eoKwhBJk0RtpxvFiy2xqY,Pavillon Duhamel,Ville-Marie,CA,QC,J9V 2A9,+1 819-629-3027,,hospital,,47.3272317,-79.43785629999999,1745790598,hospital,0,"[""8196292805""]","{""8196292805"": ""general inquiries (primary/general facility fax; specific departmental purposes not indicated)""}"
Abitibi Temiscamingue,15943,CRD D'AMOS,"621 RUE DE L'HARRICANA, AMOS, QC, J9T 2P9",,20.0,ChIJVcJU5JGSIE0R5UhTfd3fVtA,Centre Normand,Amos,CA,QC,J9T 2P9,+1 819-732-8241,,hospital,,48.574533,-78.123442,1745790598,hospital,0,"[""8197272210""]","{""8197272210"": ""general inquiries (primary/general fax for the entire facility)""}"
Abitibi Temiscamingue,18513,SERVICES EXTERNES DE ROUYN-NORANDA,"1 9E RUE 2E ETAGE, ROUYN-NORANDA, QC, J9X 2A9",,21.0,ChIJxfGxFZozIU0RqDMvuhj8JI4,CLSC,Rouyn-Noranda,CA,QC,J9X 2A9,+1 819-762-8144,,hospital,https://www.cisss-at.gouv.qc.ca/nos-installations/,48.24334989999999,-79.0209175,1745790598,hospital,0,[],{}
Abitibi Temiscamingue,18563,CLSC ET CRD DE VAL-D'OR,"735 RUE 6 IEME RUE, VAL-D'OR, QC, J9P 3Y1",,22.0,ChIJi8jXPjlT30wRPM-9lC1o4yg,CLSC de Val-d'Or,Val-d'Or,CA,QC,J9P 3Y1,+1 819-825-5858,,hospital,https://www.cisss-at.gouv.qc.ca/nos-installatio,48.09591169999999,-77.7966024,1745790598,hospital,0,"[""8198255950"", ""8198257873""]","{""8198257873"": ""these numbers are general/main fax lines; specific purposes such as appointments, referrals, or billing are not specified in the provided information.*"", ""8198255950"": ""these numbers are general/main fax lines; specific purposes such as appointments, referrals, or billing are not specified in the provided information.*""}"
Abitibi Temiscamingue,19485,SNT GERMAIN-BIGUE,"735 6E RUE, VAL-D'OR, QC, J9P 3Y1",,23.0,ChIJ16qdFBFT30wRK9OSIIT4VPM,735 6e Rue,Val-d'Or,CA,QC,J9P 3Y1,,,pharmacy,,48.0958801,-77.7981868,1745790598,clinic,0,"[""8198257873""]","{""8198257873"": ""general inquiries (main fax line; used for general communication with the facility, potentially including referrals, medical records requests, admin, or other general purposes unless otherwise specified by the establishment)""}"
Abitibi Temiscamingue,19495,SNT CRDI AMOS,"841 3E RUE O, AMOS, QC, J9T 2T4",,24.0,ChIJmZlgfpCSIE0RVFvdGV_BiHA,Clair Foyer Inc,Amos,CA,QC,J9T 2T4,+1 819-732-6511,,hospital,,48.57726009999999,-78.1249801,1745790598,hospital,0,"[""8197320922""]","{""8197320922"": ""general inquiries (and/or main administration)""}"
Abitibi Temiscamingue,19565,CHSLD LES SOURCES,"692 4E AVENUE O, AMOS, QC, J9T 0B7",,25.0,ChIJAQDAbpGSIE0RoejMW6E6ONU,Les Sources,Amos,CA,QC,J9T 2S1,+1 819-732-0581,,hospital,http://carrefoursantelessources.com/,48.5749068,-78.12689499999999,1745790598,hospital,0,[],{}
Abitibi Temiscamingue,19893,CRDP ET CRDI-TSA DE VAL-D'OR,"975 RUE E GERMAIN, VAL-D'OR, QC, J9P 7H7",,26.0,ChIJfQEamAxT30wRTCvC5kEGOr0,Centre De Réadaptation La Maison,Val-d'Or,CA,QC,J9P 7H7,+1 819-825-3337,,hospital,https://sante.gouv.qc.ca/repertoire-ressources/ressource/?nofiche=198&ch_type=&bt_rechType=&theme=autres-ressources&ch_choixReg=&ch_rayon=0&ch_code=&page=310,48.10190559999999,-77.8015571,1745790598,hospital,0,"[""819-825-3548"", ""8198253548""]","{""819-825-3548"": ""general"", ""8198253548"": ""general""}"
Abitibi Temiscamingue,19995,MDA MA DE VAL-D'OR,"1030 AV DES ERABLES, VAL-D'OR, QC, J9P 2R3",,27.0,ChIJEwFLKQBT30wRBiHFjopfvn4,Maison des aînés et alternative de Val-d'Or,Val-d'Or,CA,QC,J9P 0R5,+1 873-476-0150,,hospital,,48.09472419999999,-77.797958,1745790598,hospital,0,[],{}
Abitibi Temiscamingue,41500,HOPITAL D'AMOS,"622 4E RUE O, AMOS, QC, J9T 2S2",,28.0,ChIJ8_e2nZGSIE0RQHTMxFaGFwk,Hôpital d’Amos,Amos,CA,QC,J9T 2S2,+1 819-732-3341,,hospital,http://www.sante.gouv.qc.ca/en/repertoire-ressources/ressource/?nofiche=1208,48.5747602,-78.1254891,1745790598,hospital,0,"[""8197320425"", ""8197327054""]","{""8197320425"": ""**819-732-3341**."", ""8197327054"": ""**819-732-3341**.""}"
Abitibi Temiscamingue,41506,HOPITAL D'AMOS,"622 4E RUE O, AMOS, QC, J9T 2S2",,29.0,ChIJ8_e2nZGSIE0RQHTMxFaGFwk,Hôpital d’Amos,Amos,CA,QC,J9T 2S2,+1 819-732-3341,,hospital,http://www.sante.gouv.qc.ca/en/repertoire-ressources/ressource/?nofiche=1208,48.5747602,-78.1254891,1745790598,hospital,0,"[""8197320425"", ""8197323113"", ""8197327054"", ""8197272210""]","{""8197320425"": ""general inquiries (for the hospital)"", ""8197323113"": ""patient care, referrals (family medicine unit communications, likely includes clinical matters and referrals)"", ""8197327054"": ""general inquiries, admin (for the health and social services center)"", ""8197272210"": ""patient care, referrals (addiction rehabilitation center communications, likely includes referrals and clinical matters)""}"
Abitibi Temiscamingue,41520,CENTRE MULTI SSS DE LA SARRE,"679 2E RUE CP 6000, LA SARRE, QC, J9Z 2X7",,30.0,ChIJA0oPPnh5IU0R6oY1vw_EGAY,Centre Hospitalier De La Sarre,La Sarre,CA,QC,J9Z 2X7,+1 819-333-2311,,hospital,http://www.sante.gouv.qc.ca/en/repertoire-ressources/ressource/?nofiche=699,48.7864561,-79.198577,1745790598,hospital,0,"[""8193332755""]","{""8193332755"": ""general inquiries""}"
Abitibi Temiscamingue,41530,HOPITAL DE ROUYN-NORANDA,"4 9E RUE, ROUYN-NORANDA, QC, J9X 2B2",,31.0,ChIJF41xFJozIU0R751OraSgjMc,Hospital of Rouyn-Noranda - Juteau-Lemay Building,Rouyn-Noranda,CA,QC,J9X 2B2,+1 819-764-5131,,hospital,https://www.cisss-at.gouv.qc.ca/,48.2435816,-79.0194841,1745790598,hospital,0,"[""8197644537"", ""8197642927"", ""8197621057""]","{""8197644537"": ""infectious diseases reporting (confidential transmission of notifiable disease reports)"", ""8197642927"": ""medical records (sending or receiving medical records)"", ""8197621057"": ""general inquiries (reception/accueil)""}"
Abitibi Temiscamingue,41531,HOPITAL DE ROUYN-NORANDA,"4 9E RUE, ROUYN-NORANDA, QC, J9X 2B2",,32.0,ChIJF41xFJozIU0R751OraSgjMc,Hospital of Rouyn-Noranda - Juteau-Lemay Building,Rouyn-Noranda,CA,QC,J9X 2B2,+1 819-764-5131,,hospital,https://www.cisss-at.gouv.qc.ca/,48.2435816,-79.0194841,1745790598,hospital,0,"[""8197644211"", ""8197642927"", ""8197621057""]","{""8197644211"": ""general inquiries (general hospital fax, department not specified)"", ""8197642927"": ""medical records"", ""8197621057"": ""general inquiries (reception/front desk)""}"
Abitibi Temiscamingue,41536,HOPITAL DE ROUYN-NORANDA,"4 9E RUE, ROUYN-NORANDA, QC, J9X 2B2",,33.0,ChIJF41xFJozIU0R751OraSgjMc,Hospital of Rouyn-Noranda - Juteau-Lemay Building,Rouyn-Noranda,CA,QC,J9X 2B2,+1 819-764-5131,,hospital,https://www.cisss-at.gouv.qc.ca/,48.2435816,-79.0194841,1745790598,hospital,0,"[""8197644211"", ""8197642927"", ""8197621057""]","{""8197642927"": ""medical records"", ""8197644211"": ""unknown / unspecified (department or purpose not specified)"", ""8197621057"": ""general""}"
Abitibi Temiscamingue,41540,HOPITAL DE VAL-D'OR,"725 6E RUE, VAL-D'OR, QC, J9P 3Y1",,34.0,ChIJZxWIxxFT30wR3OYQ6a73BHU,Hôpital de Val-d’Or,Val-d'Or,CA,QC,J9P 3Y1,+1 819-825-5858,,hospital,http://www.cisss-at.gouv.qc.ca/,48.0966532,-77.7964539,1745790598,hospital,0,"[""819-825-7919"", ""8198257812"", ""8198257921"", ""8198257919""]","{""8198257812"": ""general inquiries (reception)"", ""8198257921"": ""medical records (archives)"", ""819-825-7919"": ""unknown / not specified"", ""8198257919"": ""unknown / not specified""}"
Abitibi Temiscamingue,41550,CENTRE MULTI SSS DE VILLE-MARIE,"22 NOTRE-DAME N, VILLE-MARIE, QC, J9V 1W8",,35.0,ChIJK40IRaJBJk0RFifVvlYtO9s,Centre de Santé et de services sociaux du Lac-Témiscamingue,Ville-Marie,CA,QC,J9V 1W8,+1 819-629-2420,,hospital,https://www.cisss-at.gouv.qc.ca/,47.33327469999999,-79.44437010000001,1745790598,hospital,0,"[""8196292128"", ""8196293257""]","{""8196292128"": ""general inquiries (general fax for centre multi sss de ville-marie)"", ""8196293257"": ""general inquiries or administration (fax for centre de sant\u00e9 sainte-famille, same address, likely for administrative/operational use)""}"
Abitibi Temiscamingue,44939,CRDP ET CRDI-TSA DE ROUYN-NORANDA,"100 CH DR LEMAY, ROUYN-NORANDA, QC, J9X 5T2",,36.0,ChIJuRgL6nIzIU0Ruq9e0oKICvk,Centre De Readaptation La Maison,Rouyn-Noranda,CA,QC,J9X 5T2,+1 819-762-6592,,hospital,https://sante.gouv.qc.ca/repertoire-ressources/ressource/?nofiche=198&ch_type=&bt_rechType=&theme=autres-ressources&ch_choixReg=&ch_rayon=0&ch_code=&page=310,48.2253979,-79.02105949999999,1745790598,hospital,0,"[""8197621230"", ""8197978313""]","{""8197621230"": ""general administration (general correspondence and administrative purposes)"", ""8197978313"": ""technical aids service (communication related to technical aids and equipment services)""}"
Abitibi Temiscamingue,48291,GMFU DE LA VALLEE-DE-L'OR,"525 6E RUE, VAL-D'OR, QC, J9P 0L6",,37.0,ChIJO7S3wRBT30wRm70jlpSgkhg,GMF-U de la Vallée-de-l'Or / Groupe de médecine familiale universitaire de la Vallée-de-l'Or,Val-d'Or,CA,QC,J9P 0L6,+1 819-825-5858 ext. 5,,hospital,http://www.gmfuvalleedelor.com/,48.0963772,-77.7951121,1745790598,hospital,0,"[""8198251192""]","{""8198251192"": ""general administrative purposes, residency and education program""}"
Abitibi Temiscamingue,48301,GMFU DE ROUYN-NORANDA,"3 9E RUE 3E ETAGE, ROUYN-NORANDA, QC, J9X 2A9",,38.0,ChIJF41xFJozIU0RQWSvWi6SyVQ,Groupe de médecine de famille universitaire,Rouyn-Noranda,CA,QC,J9X 2A9,+1 819-797-4535,,hospital,,48.2441571,-79.0206456,1745790598,hospital,0,[],{}
Abitibi Temiscamingue,49241,GMFU D'AMOS,"100-692 4E AVENUE O, AMOS, QC, J9T 0B7",,39.0,ChIJ74T1odiTIE0R9N83dwNcxMw,GMF-U Les Eskers d'Amos,Amos,CA,QC,J9T 0B7,+1 819-732-6972,,hospital,http://gmfuleseskers.ca/,48.5750236,-78.1281051,1745790598,hospital,0,"[""8197329130""]","{""8197329130"": ""//www.google.com/maps/search/gmf-u+les+eskers+d%27amos)""}"
Abitibi Temiscamingue,50139,CANADIAN FORCES BASE HOSPITAL,", SENNETERRE, QC, J0Y 2M0",,40.0,ChIJG9BybJIW30wRPg2udXmJYmQ,Centre de santé de Senneterre,Senneterre,CA,QC,J0Y 2M0,+1 819-825-5858,,hospital,http://www.cisss-at.gouv.qc.ca/,48.3845597,-77.2529078,1745790598,hospital,0,"[""4188443959"", ""4188445056""]","{""4188443959"": ""valcartier military family resource centre (vmfrc)"", ""4188445056"": ""2nd canadian division support base valcartier""}"
Abitibi Temiscamingue,51014,CLINIQUE D'HYGIENE DENTAIRE NOEMIE ROY,"108-450 3E AVENUE, VAL-D'OR, QC, J9P 1S2",,41.0,ChIJHZ60leFT30wR2SiZAZnA1KY,Clinique d'hygiène dentaire Noémie Roy,Val-d'Or,CA,QC,J9P 1S2,+1 819-443-4158,,hospital,https://www.noemieroy-hd.com/?utm_source=google&utm_medium=wix_google_business_profile&utm_campaign=11114864552978627084,48.1008612,-77.7796655,1745790598,hospital,0,[],{}
Abitibi Temiscamingue,52511,CLINIQUE D'OPTOMETRIE DE MALARTIC,"742 ROYALE CP 1807, MALARTIC, QC, J0Y 1Z0",,42.0,ChIJc_hfxn6tIE0Rz6wItmfvifM,Hôpital en santé mentale et CLSC de Malartic,Malartic,CA,QC,J0Y 1Z0,+1 819-825-5858,,hospital,https://www.sante.gouv.qc.ca/en/repertoire-ressources/ressource/?nofiche=954,48.14122889999999,-78.1286676,1745790598,hospital,0,"[""8197574441""]","{""8197574441"": ""general inquiries (general fax line for the clinic; specific departmental uses not indicated)""}"
Abitibi Temiscamingue,52512,"CLINIQUE D'OPTOMETRIE MORIN, MARCOTTE, LAROCHE","660A 10E AVENUE, SENNETERRE, QC, J0Y 2M0",,43.0,ChIJU1OAcwRT30wRWm7xI4AAvdM,Vision-Ère,Val-d'Or,CA,QC,J9P 1S7,+1 819-824-4703,,hospital,http://visionere.ca/,48.1014327,-77.7847456,1745790598,hospital,0,"[""5145212229""]","{""5145212229"": ""general administrative and patient-related communications""}"
Abitibi Temiscamingue,52513,COME VIENS OPTOMETRISTE,"7A SAINTE-ANNE, VILLE-MARIE, QC, J9V 2B6",,44.0,ChIJ1_R5AKBBJk0RkoR4_gCujNA,IRIS Optométristes et Opticiens - Ville-Marie,Ville-Marie,CA,QC,J9V 1J3,+1 819-622-0909,,hospital,https://iris.ca/fr/trouver-une-boutique/ville-marie,47.3343723,-79.4364775,1745790598,hospital,0,[],{}
Abitibi Temiscamingue,52514,ROGER BELLEMARE OPTOMETRISTE,"26A DES OBLATS N, VILLE-MARIE, QC, J9V 1J3",,45.0,ChIJ1_R5AKBBJk0RkoR4_gCujNA,IRIS Optométristes et Opticiens - Ville-Marie,Ville-Marie,CA,QC,J9V 1J3,+1 819-622-0909,,hospital,https://iris.ca/fr/trouver-une-boutique/ville-marie,47.3343723,-79.4364775,1745790598,hospital,0,"[""8196220888""]","{""8196220888"": ""general operations (including general inquiries, referrals, and other clinic-related fax communications; no specific departmental purpose indicated)""}"
Abitibi Temiscamingue,52739,CLINIQUE D'OPTOMETRIE DE VAL D'OR,"887 3E AVENUE, VAL-D'OR, QC, J9P 1T2",,46.0,ChIJU1OAcwRT30wRWm7xI4AAvdM,Vision-Ère,Val-d'Or,CA,QC,J9P 1S7,+1 819-824-4703,,hospital,http://visionere.ca/,48.1014327,-77.7847456,1745790598,hospital,0,"[""8198249200"", ""8198259254""]","{""8198249200"": ""general inquiries / customer service"", ""8198259254"": ""unspecified (purpose not specified in available sources)""}"
Abitibi Temiscamingue,52740,CLINIQUE D'OPTOMETRIE VISION-ERE,"663 3E AVENUE, VAL-D'OR, QC, J9P 1S7",,47.0,ChIJU1OAcwRT30wRWm7xI4AAvdM,Vision-Ère,Val-d'Or,CA,QC,J9P 1S7,+1 819-824-4703,,hospital,http://visionere.ca/,48.1014327,-77.7847456,1745790598,hospital,0,"[""8198249200""]","{""8198249200"": ""general (unspecified purpose; possibly used for general inquiries, referrals, or medical records, but the exact purpose is not specified in the provided information)""}"
Abitibi Temiscamingue,52742,CLINIQUE D'OPTOMETRIE IRIS,"82 1E AVENUE E, AMOS, QC, J9T 4B2",,48.0,ChIJV_iVLYqSIE0R4rx5xr2_xug,Centre visuel des eskers,Amos,CA,QC,J9T 1H2,+1 819-732-6831,,hospital,http://centrevisueldeseskers.com/,48.57213499999999,-78.114401,1745790598,hospital,0,"[""8197272036""]","{""8197272036"": ""general inquiries""}"
Abitibi Temiscamingue,52743,CENTRE VISUEL ROUYN-NORANDA,"66 GAMBLE O, ROUYN-NORANDA, QC, J9X 2R4",,49.0,ChIJHeczC5wzIU0R6UDeVvaGBOE,IRIS Optométristes et Opticiens - Rouyn-Noranda,Rouyn-Noranda,CA,QC,J9X 4T3,+1 819-764-4747,,hospital,https://iris.ca/fr/trouver-une-boutique/rouyn-noranda,48.2388163,-79.0222534,1745790598,hospital,0,"[""8197644824""]","{""8197644824"": ""general inquiries (primary/general-purpose fax; specific department or use not specified)""}"
Abitibi Temiscamingue,52746,IRIS LASARRE,"49 5E AVENUE E, LA SARRE, QC, J9Z 1L1",,50.0,ChIJZa-2LQ55IU0RtPrUq5cLyj0,IRIS,La Sarre,CA,QC,J9Z 1K9,+1 819-339-5656,,hospital,https://iris.ca/fr/trouver-une-boutique/la-sarre,48.8051415,-79.2025022,1745790598,hospital,0,"[""8193395657""]","{""8193395657"": ""main operations / general inquiries""}"
Abitibi Temiscamingue,52747,"CHABOT, TRUDEL ET ST-PIERRE OPTOMETRISTES","200-671 2E RUE E, LA SARRE, QC, J9Z 3J7",,51.0,ChIJZa-2LQ55IU0RtPrUq5cLyj0,IRIS,La Sarre,CA,QC,J9Z 1K9,+1 819-339-5656,,hospital,https://iris.ca/fr/trouver-une-boutique/la-sarre,48.8051415,-79.2025022,1745790598,hospital,0,"[""8193331169""]","{""8193331169"": ""general communications (includes general inquiries, referrals, medical records, admin, billing, etc.\u2014all handled through one public fax number)""}"
Abitibi Temiscamingue,52859,LAURENT MERCIER OPTOMETRISTE,"51 BOUL MERCIER, AMOS, QC, J9T 2N8",,52.0,ChIJL6SZn5OSIE0RkRkfhZncsj8,"Clinique d'optométrie Mercier, Lapointe, Langevin",Amos,CA,QC,J9T 1V8,+1 819-732-2622,,hospital,http://www.cliniquemll.com/,48.57173899999999,-78.12892,1745790598,hospital,0,"[""8197329304""]","{""8197329304"": ""general/general clinic use (specific departmental purpose not specified; likely used for general clinic communication, referrals, or medical records, but precise use is not stated in the available sources)""}"
Abitibi Temiscamingue,52966,GREICHE ET SCAFF,"39-1801 3E AVENUE, VAL-D'OR, QC, J9P 5K1",,53.0,ChIJk4zSNAJT30wR23azOBVPBe8,Greiche & Scaff Val d'Or,Val-d'Or,CA,QC,J9P 5K1,+1 819-874-8055,,hospital,https://www.greiche-scaff.com/fr/stores/store/index/id/347/,48.095332,-77.8261741,1745790598,hospital,0,"[""8198747693""]","{""8198747693"": ""general inquiries""}"
Abitibi Temiscamingue,53058,GREICHE & SCAFF,"96-100 DU TERMINUS O, ROUYN-NORANDA, QC, J9X 6H7",,54.0,ChIJLXeeVHUzIU0RXF6rAic7K_Y,Greiche & Scaff Rouyn,Rouyn-Noranda,CA,QC,J9X 6H7,+1 819-764-6786,,hospital,https://www.greiche-scaff.com/fr/stores/store/index/id/356/,48.24286069999999,-79.0248853,1745790598,hospital,0,"[""8197644504""]","{""8197644504"": ""general inquiries (specific purpose not stated; likely used for general contact or all administrative purposes)""}"
Abitibi Temiscamingue,53134,CHARLES LONGLADE O.D.,"183 ANVIK, TEMISCAMING, QC, J0Z 3R0",,55.0,ChIJRQRBYBpvKE0RL7GveR1bGY8,Vincent Labranche | REALTOR | Cottages For Sale Quebec,Témiscaming,CA,QC,J0Z 3R0,+1 705-499-5923,,pharmacy,https://labranchehometeam.com/,46.7227915,-79.0942891,1745790598,clinic,0,"[""7054727833""]","{""7054727833"": ""general office use (may include referrals, medical records, and administrative communication)""}"
Abitibi Temiscamingue,53179,CLINIQUE D'OPTOMETRIE NATHALIE BRIEN,"887 3E AVENUE, VAL-D'OR, QC, J9P 1T2",,56.0,ChIJdaqu_QVT30wR8_-6R_AC--4,Opto-Réseau Val d'Or,Val-d'Or,CA,QC,J9P 1T2,+1 819-825-8933,,hospital,https://www.opto-reseau.com/fr/cliniques/clinique-opto-reseau-val-dor,48.1032058,-77.7895017,1745790598,hospital,0,"[""403-585-7963"", ""514-695-1975"", ""604-257-5316"", ""5146951975""]","{""403-585-7963"": ""general clinic fax (brossard location) \u2013 likely used for general inquiries, referrals, medical records, and admin"", ""514-695-1975"": ""duplicate of 514-695-1975 (pointe-claire location) \u2013 same purpose"", ""604-257-5316"": ""general clinic fax (montr\u00e9al location) \u2013 likely used for general inquiries, referrals, medical records, and admin"", ""5146951975"": ""duplicate of 514-695-1975 (pointe-claire location) \u2013 same purpose""}"
Abitibi Temiscamingue,53232,CLINIQUE D'OPTOMETRIE ROUYN-NORANDA,"75 MONSEIGNEUR TESSIER O, ROUYN-NORANDA, QC, J9X 2S5",,57.0,ChIJHeczC5wzIU0R6UDeVvaGBOE,IRIS Optométristes et Opticiens - Rouyn-Noranda,Rouyn-Noranda,CA,QC,J9X 4T3,+1 819-764-4747,,hospital,https://iris.ca/fr/trouver-une-boutique/rouyn-noranda,48.2388163,-79.0222534,1745790598,hospital,0,"[""8197644824""]","{""8197644824"": ""general inquiries (general fax line for the clinic; no specific departmental use indicated)""}"
Abitibi Temiscamingue,53822,CENTRE VISUEL DES ESKERS,"41 1E AVENUE E, AMOS, QC, J9T 1H2",,58.0,ChIJV_iVLYqSIE0R4rx5xr2_xug,Centre visuel des eskers,Amos,CA,QC,J9T 1H2,+1 819-732-6831,,hospital,http://centrevisueldeseskers.com/,48.57213499999999,-78.114401,1745790598,hospital,0,"[""8197322877""]","{""8197322877"": ""general inquiries (specific departmental purpose not specified in available sources)""}"
Abitibi Temiscamingue,54055,GMF-U DES AURORES BOREALES,"228 2E RUE E, LA SARRE, QC, J9Z 2G9",,59.0,ChIJc8caUw55IU0RQJ5kUzurZL0,Groupe De Medicine Familiale,La Sarre,CA,QC,J9Z 2G9,+1 819-339-5617,,hospital,https://www.gmfuab.com/fr/,48.8060379,-79.2009429,1745790598,hospital,0,[],{}
Abitibi Temiscamingue,54056,CLINIQUE DE SANTE DE L'EVEIL,"202 12E AVENUE E, LA SARRE, QC, J9Z 2M6",,60.0,ChIJA0oPPnh5IU0R6oY1vw_EGAY,Centre Hospitalier De La Sarre,La Sarre,CA,QC,J9Z 2X7,+1 819-333-2311,,hospital,http://www.sante.gouv.qc.ca/en/repertoire-ressources/ressource/?nofiche=699,48.7864561,-79.198577,1745790598,hospital,0,[],{}
Abitibi Temiscamingue,54057,CLINIQUE DU DOCTEURE HELENE HOTLETT,"12 MONTEE LAVIGNE CP 156, LA SARRE, QC, J9Z 2X5",,61.0,ChIJ26_D2Wh5IU0RuXJe6uUQu6c,Helene Hottlet,La Sarre,CA,QC,J9Z 2X5,+1 819-333-2345,,hospital,,48.7910899,-79.216572,1745790598,hospital,0,[],{}
Abitibi Temiscamingue,54157,CLINIQUE MEDICALE LE NOROIS,"201-641 4E RUE O, AMOS, QC, J9T 2S1",,62.0,ChIJn7n3cpGSIE0RifCVQaeDISY,Clinique De Medicine Familiale,Amos,CA,QC,J9T 2S1,+1 819-732-6972,,hospital,http://www.gmfuleseskers.ca/,48.57488719999999,-78.12689929999999,1745790598,hospital,0,[],{}
Abitibi Temiscamingue,54184,CLINIQUE MEDICALE DE L'OR ET DES BOIS,"1281 7E RUE, VAL-D'OR, QC, J9P 3S1",,63.0,ChIJlZkCWQZT30wRkgWMYIspJXc,Clinique De Physiothérapie Val-d’Or Inc,Val-d'Or,CA,QC,J9P 3S1,+1 819-825-2222,,hospital,https://www.physiovd.com/,48.10486589999999,-77.7864322,1745790598,hospital,0,"[""8198253333""]","{""8198253333"": ""general inquiries""}"
Abitibi Temiscamingue,54185,CLINIQUE FAMILIALE DES PINS,"1019 BOUL DES PINS, VAL-D'OR, QC, J9P 4T2",,64.0,ChIJ7RTqVhZT30wR5W5KfWE87w8,Clinique Familliale Des Pins,Val-d'Or,CA,QC,J9P 4T2,+1 819-825-8464,,hospital,,48.09144819999999,-77.7996847,1745790598,hospital,0,"[""450-973-3848"", ""4186823998"", ""4509733848""]","{""450-973-3848"": ""sleep apnea services (duplicate of the first number, same purpose)"", ""4509733848"": ""sleep apnea services (duplicate of the first number, same purpose)"", ""4186823998"": ""orthotics services (\u00e9quilibre val-d'or\u2014communications related to orthotic services)""}"
Abitibi Temiscamingue,54186,CLINIQUE DR CLAUDE MALENFANT,"1731 3E AVENUE BUREAU 100, VAL-D'OR, QC, J9P 1W3",,65.0,ChIJQwLLYm9T30wR1UB1xtyJoOs,Malenfant Claude Dr,Val-d'Or,CA,QC,J9P 1W3,+1 819-825-6678,,hospital,,48.0974215,-77.81998519999999,1745790598,hospital,0,[],{}
Abitibi Temiscamingue,54241,CLINIQUE DE MEDECINE FAMILIALE,"19 RUE GAMBLE O, ROUYN-NORANDA, QC, J9X 2R3",,66.0,ChIJF41xFJozIU0RQWSvWi6SyVQ,Groupe de médecine de famille universitaire,Rouyn-Noranda,CA,QC,J9X 2A9,+1 819-797-4535,,hospital,,48.2441571,-79.0206456,1745790598,hospital,0,"[""8197649436""]","{""8197649436"": ""general inquiries (likely, but could also be used for referrals, medical records, or administrative purposes\u2014exact purpose not specified)""}"
Abitibi Temiscamingue,54242,CLINIQUE MEDICALE DU CUIVRE (SIEGE SOCIAL),"2813 BOUL RIDEAU, ROUYN-NORANDA, QC, J0Z 1Y0",,67.0,ChIJ48hgkXA1IU0RJjy4WsCyRyg,Clinique Médicale Évain,Rouyn-Noranda,CA,QC,J0Z 1Y0,+1 819-768-2252,,hospital,https://www.cliniquemedicaleevain.com/,48.237838,-79.131395,1745790598,hospital,0,"[""8197645792"", ""8197682422""]","{""8197645792"": ""general operations (specific departmental use not specified)"", ""8197682422"": ""general operations of the clinic""}"
Abitibi Temiscamingue,54243,CLINIQUE FLEUR DE LYS,"8 RUE DU TERMINUS E 3E ETAGE, ROUYN-NORANDA, QC, J9X 3B4",,68.0,ChIJqzaCK5ozIU0Rvg0aKsQYcjs,Clinique Medicale Fleur De Lys,Rouyn-Noranda,CA,QC,J9X 4P1,+1 819-764-6185,,hospital,,48.2416267,-79.0196685,1745790598,hospital,0,"[""8197626079""]","{""8197626079"": ""general inquiries (default/general clinic fax; specific department or specialized purpose not specified)""}"
Abitibi Temiscamingue,54244,CLINIQUE MEDICALE ACCES-SANTE,"8 RUE DU TERMINUS E REZ-DE-CHAUSSEE, ROUYN-NORANDA, QC, J9X 3B4",,69.0,ChIJqzaCK5ozIU0RT62BGnrybzA,Clinique Medicale Acces-Sante,Rouyn-Noranda,CA,QC,J9X 3B4,+1 819-762-2130,,hospital,,48.2416536,-79.0196344,1745790598,hospital,0,[],{}
Abitibi Temiscamingue,54245,CLINIQUE MEDICALE KEKEKO,"166 RUE IBERVILLE E, ROUYN-NORANDA, QC, J9X 3B4",,70.0,ChIJZxf0-wozIU0R2Oiqe-hczZw,Centre Medical Lariviere,Rouyn-Noranda,CA,QC,J9X 4H9,+1 819-762-4004,,hospital,https://www.sante.gouv.qc.ca/repertoire-ressources/ressource/?nofiche=434519,48.2310826,-79.0142663,1745790598,hospital,0,[],{}
Abitibi Temiscamingue,54246,CLINIQUE DE MEDECINE DE FAMILLE MARLEAU ET PARAYRE,"19 RUE GAMBLE O, ROUYN-NORANDA, QC, J9X 2R3",,71.0,ChIJYVkO45szIU0RZAWTRW_Ri6c,19 Rue Gamble O,Rouyn-Noranda,CA,QC,J9X 2R3,,,clinic,,48.2398314,-79.0208119,1745790598,clinic,0,[],{}
Abitibi Temiscamingue,54297,POLYCLINIQUE WABAKIN DE LA SARRE,"255 3E RUE E, LA SARRE, QC, J9Z 3N7",,72.0,ChIJl93ycHd5IU0RocewTnepjrU,Polyclinique WabakinMedecins,La Sarre,CA,QC,J9Z 3N7,+1 819-339-5661,,hospital,,48.8060433,-79.1972748,1745790598,hospital,0,"[""8193393015""]","{""8193393015"": ""general inquiries (potentially also used for referrals, medical records, and administrative purposes, as it is the only fax number listed for a general clinic location)""}"
Abitibi Temiscamingue,54390,CENTRE MEDICAL LARIVIERE,"423 AV LARIVIERE, ROUYN-NORANDA, QC, J9X 4H9",,73.0,ChIJZxf0-wozIU0R2Oiqe-hczZw,Centre Medical Lariviere,Rouyn-Noranda,CA,QC,J9X 4H9,+1 819-762-4004,,hospital,https://www.sante.gouv.qc.ca/repertoire-ressources/ressource/?nofiche=434519,48.2310826,-79.0142663,1745790598,hospital,0,[],{}
Abitibi Temiscamingue,54451,CLINIQUE MEDICALE EVAIN,"2813 RIDEAU BLVD, ROUYN-NORANDA, QC, J0Y 1Z0",,74.0,ChIJ48hgkXA1IU0RJjy4WsCyRyg,Clinique Médicale Évain,Rouyn-Noranda,CA,QC,J0Z 1Y0,+1 819-768-2252,,hospital,https://www.cliniquemedicaleevain.com/,48.237838,-79.131395,1745790598,hospital,0,"[""8197682422""]","{""8197682422"": ""general (exact purpose not specified; likely used for general clinic communications, possibly including referrals, medical records, or admin, but no specific department indicated)""}"
Abitibi Temiscamingue,54486,CLINIQUE ALLIANCE,"121 8E RUE, ROUYN-NORANDA, QC, J9X 2A5",,75.0,ChIJ__8rSJEzIU0ROTUmIcq1B7M,Clinical Alliance,Rouyn-Noranda,CA,QC,J9X 2A5,+1 819-917-2020,,hospital,,48.2476478,-79.01812509999999,1745790598,hospital,0,[],{}
Abitibi Temiscamingue,54495,ACCUEIL GMF ROUYN-NORANDA,"8 RUE DU TERMINUS E, ROUYN-NORANDA, QC, J9X 3B4",,76.0,ChIJqzaCK5ozIU0RYXD4MEYzbZ0,GMF Rouyn-Noranda,Rouyn-Noranda,CA,QC,J9X 3B4,+1 819-762-1801,,hospital,http://gmfrn.com/,48.2416536,-79.0196344,1745790598,hospital,0,"[""8197974665""]","{""8197974665"": ""general inquiries / referrals (for gmf-u rouyn-noranda, as listed on the gmf-u contact page; specific fax purpose not detailed, but typically serves for referrals, medical documents, and general administrative communications in quebec healthcare clinics)""}"
Abitibi Temiscamingue,55122,CLINIQUE CENTRE-VILLE,"929 3E AVENUE, VAL D'OR, QC, J9P 1T4",,77.0,ChIJexR9rQhT30wRy2prs2y9UyQ,Clinique Medicale Ctr Ville,Val-d'Or,CA,QC,J9P 1T4,+1 819-874-9111,,hospital,https://bonjour-sante.ca/uno/clinique/ccentreville,48.1036937,-77.7907494,1745790598,hospital,0,"[""8198749112""]","{""8198749112"": ""819-874-9111.""}"
Abitibi Temiscamingue,55181,COOP SANTE TEMISCAVIE,"19 RUE DOLLARD, VILLE-MARIE, QC, J9V 1L1",,78.0,ChIJqUJ8maFBJk0RhQB4PRS01MM,Coop santé TémiscaVie,Ville-Marie,CA,QC,J9V 1L1,+1 819-622-2433,,hospital,,47.3338786,-79.44344749999999,1745790598,hospital,0,"[""8196220441""]","{""8196220441"": ""general inquiries (primary/general clinic fax; specific departmental purpose not indicated)""}"
Abitibi Temiscamingue,55215,CLINIQUE MEDICALE AMOS,"203-641 4E RUE O, AMOS, QC, J9T 2S1",,79.0,ChIJn7n3cpGSIE0RifCVQaeDISY,Clinique De Medicine Familiale,Amos,CA,QC,J9T 2S1,+1 819-732-6972,,hospital,http://www.gmfuleseskers.ca/,48.57488719999999,-78.12689929999999,1745790598,hospital,0,"[""8197321263""]","{""8197321263"": ""general inquiries""}"
Abitibi Temiscamingue,55223,CLINIQUE MEDICALE VILLE-MARIE,"56 RUE SAINTE-ANNE, VILLE-MARIE, QC, J9V 2B7",,80.0,ChIJ99k6459BJk0Ryd1pwQGpA2c,Clinique Medical Ville-Marie,Ville-Marie,CA,QC,J9V 2B7,+1 819-622-1414,,hospital,https://www.sante.gouv.qc.ca/repertoire-ressources/ressource/?nofiche=54096,47.3314145,-79.4377679,1745790598,hospital,0,[],{}
Abitibi Temiscamingue,55394,ESKAIR,"511 7E RUE O, AMOS, QC, J9T 2Y3",,81.0,ChIJwfN6ruySIE0R6DSXjnAI1og,Eskair,Amos,CA,QC,J9T 2Y3,+1 819-732-4405,,hospital,http://eskair.ca/,48.5725983,-78.13364729999999,1745790598,hospital,0,"[""8197324410""]","{""8197324410"": ""general inquiries (purpose not specified; likely used for general communication unless otherwise indicated by the organization)""}"
Abitibi Temiscamingue,55717,DR PIERRE FLEURY,"334 AV DU LAC, PREISSAC, QC, J0Y 2E0",,82.0,ChIJj61mgJrFIE0RJrRX_PCNrZM,334 Av. du Lac,Preissac,CA,QC,J0Y 2E0,,,pharmacy,,48.3081291,-78.4208222,1745790598,clinic,0,"[""8197628588""]","{""8197628588"": ""general inquiries (likely, as no specific departmental or specialized purpose is indicated in the available information)""}"
Abitibi Temiscamingue,55804,MICHEL BROUILLARD M.D.,"12831,BOUL RIDEAU, ROUYN-NORANDA, QC, J0Z 3J0",,,ChIJjyRV6Tq4Jk0RL8vzZCktdXI,Michel Brouillard MD,Rouyn-Noranda,CA,QC,J0Z 3J0,+1 819-493-5381,,pharmacy,,48.0439494,-79.25672349999999,1745856667,clinic,0,[],{}
Abitibi Temiscamingue,55819,CLINIQUE BELLA DONNA (MEDICO-ESTHETIQUE),"700 3E AVENUE, VAL-D'OR, QC, J9P 1S5",,85.0,ChIJQb42EwRT30wRR2bW_VpFXUE,Clinique Minceur Bella Donna,Val-d'Or,CA,QC,J9P 1S5,+1 819-874-0923,,clinic,http://www.cliniquebelladonna.com/,48.1018365,-77.7850918,1745790598,clinic,0,[],{}
Abitibi Temiscamingue,55958,CLINIQUE MEDICALE DE FABRE,"1374 RUE PRINCIPALE, ST-EDOUARD-DE-FABRE, QC, J0Z 1Z0",,86.0,ChIJTyCPPAs5Jk0Rg_h2PzvhDyY,Clinique Médicale de Fabre,Fabre,CA,QC,J0Z 1Z0,+1 873-736-0003,,hospital,http://cmfabre.ca/,47.2015243,-79.3671894,1745790598,hospital,0,"[""8737360557""]","{""8737360557"": ""general inquiries""}"
Abitibi Temiscamingue,56153,CLINIQUE MEDICALE URO-GYNECO DE L'ABITIBI,"1660 3E AVENUE, VAL-D'OR, QC, J9P 1W1",,87.0,ChIJ6WJO8GVT30wRzCu4cSBoAuY,URO-GYNECO Medical Clinic of Abitibi,Val-d'Or,CA,QC,J9P 1W1,+1 819-825-3800,,hospital,https://cliniquemedicaleurogyneco.com/,48.1002652,-77.8142329,1745790598,hospital,0,"[""8198253810""]","{""8198253810"": ""general inquiries (general fax line for the clinic; specific purposes such as referrals or medical records are not specified)""}"
Abitibi Temiscamingue,57123,CLINIQUE JP M.D.,"115 RUE DU TERMINUS O, ROUYN-NORANDA, QC, J9X 2P7",,88.0,ChIJVVWF85wzIU0Rj7zAX-5HGtc,Clinic Medic Ami,Rouyn-Noranda,CA,QC,J9X 4X8,+1 888-762-3202,,hospital,,48.2380211,-79.0249742,1745790598,hospital,0,"[""5145092015"", ""4182216050""]","{""4182216050"": ""general inquiries (also serves as the main phone and likely for general office/administrative use)"", ""5145092015"": ""general inquiries or administrative (standard clinic fax, likely used for referrals, medical records, and other general administrative communications)""}"
Abitibi Temiscamingue,70026,ETABLISSEMENT DE DETENTION D'AMOS,"902 ROUTE 111 O, AMOS, QC, J9T 3A3",,89.0,ChIJP1TJgZqSIE0Ru4jWP7VQ1uw,Detention facility Amos,Amos,CA,QC,J9T 3A3,+1 819-444-3060,,pharmacy,http://www.securitepublique.gouv.qc.ca/,48.5831169,-78.1376669,1745790598,clinic,0,"[""8194445532"", ""8194443069""]","{""8194443069"": ""main administration (general/admin inquiries)"", ""8194445532"": ""main administration at previous location (general/admin inquiries, outdated)""}"
Abitibi Temiscamingue,80145,HOPITAL PSYCHIATRIQUE DE MALARTIC,"1141 RUE ROYALE, MALARTIC, QC, J0Y 1Z0",,90.0,ChIJc_hfxn6tIE0Rz6wItmfvifM,Hôpital en santé mentale et CLSC de Malartic,Malartic,CA,QC,J0Y 1Z0,+1 819-825-5858,,hospital,https://www.sante.gouv.qc.ca/en/repertoire-ressources/ressource/?nofiche=954,48.14122889999999,-78.1286676,1745790598,hospital,0,"[""8197574330"", ""8198257739""]","{""8197574330"": ""admin (general administrative communications)"", ""8198257739"": ""unknown (purpose not specified)""}"
Abitibi Temiscamingue,81035,CLSC DE BARRAUTE,"660 RUE PRINCIPALE CP 179, BARRAUTE, QC, J0Y 1A0",,91.0,ChIJ815TV4lm30wRAeI5ZA8MacY,CLSC de Barraute,Barraute,CA,QC,J0Y 1A0,+1 819-734-6571,,hospital,,48.44075479999999,-77.63461099999999,1745790598,hospital,0,"[""8197346633""]","{""8197346633"": ""general inquiries""}"
Abitibi Temiscamingue,81045,CLSC DE ROCHEBAUCOURT,"15 RUE DES PINS, ROCHEBAUCOURT, QC, J0Y 2J0",,92.0,ChIJ815TV4lm30wRAeI5ZA8MacY,CLSC de Barraute,Barraute,CA,QC,J0Y 1A0,+1 819-734-6571,,hospital,,48.44075479999999,-77.63461099999999,1745790598,hospital,0,[],{}
Abitibi Temiscamingue,82575,CDD ET CDE DU PAVILLON SAINTE-FAMILLE,"22 RUE NOTRE-DAME N, VILLE-MARIE, QC, J9V 1W8",,93.0,ChIJDcnC1aNBJk0RsH8MA07WjD0,CLSC Centre De Sante Sainte-Famille,Ville-Marie,CA,QC,J9V 1W8,+1 819-629-2420,,hospital,https://www.sante.gouv.qc.ca/en/repertoire-ressources/ressource/?nofiche=551,47.33305290000001,-79.4442684,1745790598,hospital,0,"[""8196293257""]","{""8196293257"": ""general inquiries""}"
Abitibi Temiscamingue,83585,CENTRE D'AMITIE AUTOCHTONE DE VAL-D'OR,"1272 7E RUE, VAL-D'OR, QC, J9P 6W6",,94.0,ChIJ7_kGYQZT30wRhEE94Cznk3M,Native Friendship Center in Val-d'Or,Val-d'Or,CA,QC,J9P 6W6,+1 819-825-6857,,clinic,http://www.caavd.ca/,48.1045252,-77.78598720000001,1745790598,clinic,0,"[""8198257515""]","{""8198257515"": ""general inquiries""}"
Abitibi Temiscamingue,83595,CENTRE DE SANTE MINO TEHEWIN,"1020 RUE AMIKWICHE, LAC-SIMON, QC, J0Y 3M0",,95.0,ChIJX64m_HW2z0wRXUhL6-EmOBQ,Centre De Sante De Lac-Simon,Lac-Simon,CA,QC,J0Y 3M0,+1 819-736-2151,,hospital,https://lacsimon.ca/departement/centre-de-sante-mino-tehewin/,48.0617752,-77.3548507,1745790598,hospital,0,"[""8197362064""]","{""8197362064"": ""general inquiries""}"
Abitibi Temiscamingue,83605,CENTRE DE SANTE DE KITCISAKIK,"100-615 AV CENTRALE, VAL-D'OR, QC, J9P 1P9",,96.0,ChIJz1nS8wNT30wRzt2LIj74IPw,Conseil Des Anicipek De Kitcisakik,Val-d'Or,CA,QC,J9P 1P9,+1 819-736-3001,,clinic,,48.1018109,-77.7834685,1745790598,clinic,0,[],{}
Abitibi Temiscamingue,91012,CENTRE MULTI SSS DE SENNETERRE,"961 DE LA CLINIQUE, SENNETERRE, QC, J0Y 2M0",,97.0,ChIJG9BybJIW30wRPg2udXmJYmQ,Centre de santé de Senneterre,Senneterre,CA,QC,J0Y 2M0,+1 819-825-5858,,hospital,http://www.cisss-at.gouv.qc.ca/,48.3845597,-77.2529078,1745790598,hospital,0,"[""8197373122"", ""8197374652""]","{""8197373122"": ""general inquiries, administrative communications"", ""8197374652"": ""youth protection services (evaluation, orientation, foster care, reunification, adaptation, residential rehabilitation, psychosocial follow-ups)""}"
Abitibi Temiscamingue,91212,CENTRE MULTI SSS DE VILLE-MARIE,"22 NOTRE-DAME N, VILLE-MARIE, QC, J9V 1W8",,98.0,ChIJK40IRaJBJk0RFifVvlYtO9s,Centre de Santé et de services sociaux du Lac-Témiscamingue,Ville-Marie,CA,QC,J9V 1W8,+1 819-629-2420,,hospital,https://www.cisss-at.gouv.qc.ca/,47.33327469999999,-79.44437010000001,1745790598,hospital,0,"[""8196292128"", ""8196293257""]","{""8196292128"": ""general inquiries (main/general fax for the facility)"", ""8196293257"": ""additional/general use (purpose not explicitly specified, likely administrative or departmental/non-public-specific; recommend contacting the facility for clarification)""}"
Abitibi Temiscamingue,91312,CENTRE MULTI SSS DE TEMISCAMING-KIPAWA,"180 ANVIK CP 760, TEMISCAMING, QC, J0Z 3R0",,99.0,ChIJeVHjVGlvKE0RClSEYMXjQiU,Info-Sante Clsc-Cs,Temiscaming,CA,QC,J0Z 3R0,,,hospital,,46.718235,-79.10011999999999,1745790598,hospital,0,"[""8196279497""]","{""8196279497"": ""general inquiries""}"
Abitibi Temiscamingue,92122,CENTRE MULTI SSS L'ETAPE,"700 BOUL FOREST, VAL-D'OR, QC, J9P 2L3",,100.0,ChIJAQUmThtT30wRuXaB7nwmdjE,Centre jeunesse de l'Abitibi-Témiscamingue,Val-d'Or,CA,QC,J9P 2L3,+1 819-825-0002,,clinic,,48.0980776,-77.7886558,1745790598,clinic,0,"[""8198255132""]","{""8198255132"": ""general inquiries (primary/general use; no specific department or use stated in the available information)""}"
Abitibi Temiscamingue,93742,CLSC DE ROUYN-NORANDA,"1 9E RUE, ROUYN-NORANDA, QC, J9X 2A9",,101.0,ChIJxfGxFZozIU0RqDMvuhj8JI4,CLSC,Rouyn-Noranda,CA,QC,J9X 2A9,+1 819-762-8144,,hospital,https://www.cisss-at.gouv.qc.ca/nos-installations/,48.24334989999999,-79.0209175,1745790598,hospital,0,"[""8197642933"", ""8197621057""]","{""8197642933"": ""the exact purposes are not clearly specified in the available information, so these are best interpreted as general or administrative faxes unless confirmed otherwise by the main reception.*"", ""8197621057"": ""the exact purposes are not clearly specified in the available information, so these are best interpreted as general or administrative faxes unless confirmed otherwise by the main reception.*""}"
Abitibi Temiscamingue,93752,CENTRE MULTI SSS DE LA SARRE,"679 2E RUE E, LA SARRE, QC, J9Z 3K9",,102.0,ChIJA0oPPnh5IU0R6oY1vw_EGAY,Centre Hospitalier De La Sarre,La Sarre,CA,QC,J9Z 2X7,+1 819-333-2311,,hospital,http://www.sante.gouv.qc.ca/en/repertoire-ressources/ressource/?nofiche=699,48.7864561,-79.198577,1745790598,hospital,0,"[""8193332755""]","{""8193332755"": ""general inquiries / main reception""}"
Abitibi Temiscamingue,93952,CLSC D'AMOS,"632 1ERE RUE O, AMOS, QC, J9T 2N2",,103.0,ChIJNciuj4uSIE0RDsg7d4h-UZA,CLSC/CHSLD Les Eskers - CLSC De L'Elan,Amos,CA,QC,J9T 2N2,+1 819-732-3271,,hospital,http://www.cisss-at.gouv.qc.ca/,48.5737767,-78.1180385,1745790598,hospital,0,"[""8197321282""]","{""8197321282"": ""general inquiries""}"
Abitibi Temiscamingue,94207,CRDS DE L'ABITIBI-TEMISCAMINGUE,"725 6E RUE, VAL-D'OR, QC, J9P 3Y1",,104.0,ChIJK6ygBRFT30wR75UTIMonkTg,725 6e Rue,Val-d'Or,CA,QC,J9P 3Y1,,,pharmacy,,48.09591169999999,-77.7966024,1745790598,clinic,0,[],{}
Abitibi Temiscamingue,94411,CISSS DE L'ABITIBI-TEMISCAMINGUE,"1 9E RUE, ROUYN-NORANDA, QC, J9X 2A9",,105.0,ChIJFUwfbZozIU0Rbfs1fqifA8U,Center Integrated Health And Social Services De L'abitibi-Témiscamingue,Rouyn-Noranda,CA,QC,J9X 2A9,+1 819-764-3264,,hospital,https://www.cisss-at.gouv.qc.ca/,48.2433539,-79.0210111,1745790598,hospital,0,"[""819-762-1057"", ""819-764-3075"", ""8197643075"", ""8197621057""]","{""819-762-1057"": ""nutrition consultation/education & prenatal nutrition"", ""8197621057"": ""nutrition consultation/education & prenatal nutrition"", ""819-764-3075"": ""direction de sant\u00e9 publique (public health department)"", ""8197643075"": ""direction de sant\u00e9 publique (public health department)""}"
Abitibi Temiscamingue,95222,CLSC ET CRD DE VAL-D'OR,"735 6E RUE, VAL-D'OR, QC, J9P 3Y1",,106.0,ChIJZxWIxxFT30wR3OYQ6a73BHU,Hôpital de Val-d’Or,Val-d'Or,CA,QC,J9P 3Y1,+1 819-825-5858,,hospital,http://www.cisss-at.gouv.qc.ca/,48.0966532,-77.7964539,1745790598,hospital,0,"[""8198251192"", ""8198257873""]","{""8198257873"": ""general inquiries (main fax number for clsc et crd de val-d'or; likely used for general administrative purposes and broad communication)"", ""8198251192"": ""patient care / referrals (fax number for unit\u00e9 de m\u00e9decine familiale; likely used for matters related to family medicine such as patient information, referrals, and medical forms specific to that unit)""}"
Bas Saint Laurent,0304X,HOPITAL NOTRE-DAME-DE-FATIMA,"1201 6E AVENUE PILOTE, LA POCATIERE, QC, G0R 1Z0","0,1,2,3,4,5,6,7,8",107.0,ChIJV22cD8DlvkwRDnt8P5DTxOo,Hospital Notre-Dame-De-Fatima,La Pocatière,CA,QC,G0R 1Z0,+1 418-856-7000,,hospital,,47.37203539999999,-70.026078,1745790598,hospital,0,"[""4188565916"", ""4188564737""]","{""4188564737"": ""general inquiries"", ""4188565916"": ""medical records""}"
Bas Saint Laurent,0325X,HOPITAL D'AMQUI,"135 AV GAETAN-ARCHAMBAULT, AMQUI, QC, G5J 2K5","1,2,3,4,5,6,7,8",108.0,ChIJES0aWUr-lkwRsZw2ndtuXoU,Hospital D'amqui,Amqui,CA,QC,G5J 2K5,+1 418-629-2211,,hospital,https://www.cisss-bsl.gouv.qc.ca/,48.4689687,-67.420262,1745790598,hospital,0,"[""4186291971"", ""4186294498""]","{""4186291971"": ""medical records"", ""4186294498"": ""general inquiries""}"
Bas Saint Laurent,0331X,HOPITAL DE MATANE,"333 RUE THIBAULT, MATANE, QC, G4W 2W5","0,1,2,3,4,6,7,8",109.0,ChIJN5gbUx7BlkwR2uwPFoNbzPI,Hôpital de Matane,Matane,CA,QC,G4W 2W5,+1 418-562-3135,,hospital,https://www.cisss-bsl.gouv.qc.ca/,48.84355540000001,-67.5243765,1745790598,hospital,0,"[""4185621875"", ""4185629374"", ""4185629281""]","{""4185621875"": ""general inquiries (primary/general hospital fax)"", ""4185629374"": ""general inquiries/alternative (secondary or alternative hospital fax, purpose unspecified)"", ""4185629281"": ""centre d'h\u00e9bergement administrative/patient care (specific to centre d'h\u00e9bergement de matane, likely for admin or patient care communications)""}"
Bas Saint Laurent,0333X,HOPITAL DE NOTRE-DAME-DU-LAC,"58 DE L'EGLISE, TEMISCOUATA-SUR-LE-LAC, QC, G0L 1X0","1,2,3,4,6,7,8",110.0,ChIJo7KS4JvEvUwROjNbYGWSDM0,Hôpital de Notre-Dame-du-Lac,Témiscouata-sur-le-Lac,CA,QC,G0L 1X0,+1 418-899-6751,,hospital,http://www.cisss-bsl.gouv.qc.ca/,47.6122385,-68.7992962,1745790598,hospital,0,"[""4188992809""]","{""4188992809"": ""general inquiries (general fax line for the hospital)""}"
Bas Saint Laurent,0334X,HOPITAL REGIONAL DE RIMOUSKI,"150 AV ROULEAU, RIMOUSKI, QC, G5L 5T1","0,1,2,3,4,6,7,8",111.0,ChIJ9VreMZjZlUwRUfon-pBrj9o,Rimouski Regional Hospital,Rimouski,CA,QC,G5L 5T1,+1 418-724-3000,,hospital,http://www.cisss-bsl.gouv.qc.ca/,48.4468546,-68.530918,1745790598,hospital,0,"[""4187248662"", ""4187240604""]","{""4187248662"": ""occupational health (service de sant\u00e9 au travail)"", ""4187240604"": ""elderly care/autonomy support (direction du programme soutien \u00e0 l'autonomie des personnes \u00e2g\u00e9es)""}"
Bas Saint Laurent,0339X,CENTRE MULTI. SSS DE TROIS-PISTOLES,"550 NOTRE-DAME E, TROIS-PISTOLES, QC, G0L 4K0","1,4,5,6,7",112.0,ChIJyZZW4iT1lUwRw78GNiV8XEg,Centre De Santé Et Des Services Sociaux Des Basques,Trois-Pistoles,CA,QC,G0L 4K0,+1 418-851-1111,,hospital,https://www.cisss-bsl.gouv.qc.ca/,48.1327438,-69.1593704,1745790598,hospital,0,"[""418-851-2944"", ""418-851-1946"", ""418-851-2994"", ""4188512994"", ""4188511946"", ""4188512944""]","{""418-851-2944"": ""same as 418-851-2944"", ""4188512944"": ""same as 418-851-2944"", ""418-851-1946"": ""same as 418-851-1946"", ""4188511946"": ""same as 418-851-1946"", ""418-851-2994"": ""same as 418-851-2994"", ""4188512994"": ""same as 418-851-2994""}"
Bas Saint Laurent,0340X,CENTRE HOSPITALIER REGIONAL DU GRAND-PORTAGE,"75 SAINT-HENRI, RIVIERE-DU-LOUP, QC, G5R 2A4","0,1,2,3,4,6,7,8",113.0,ChIJf4n66MpAvkwR2miTI5-4xTw,Regional Hospital Du Grand-Portage,Rivière-du-Loup,CA,QC,G5R 2A4,+1 418-868-1000,,hospital,https://www.cisss-bsl.gouv.qc.ca/,47.8184192,-69.5401882,1745790598,hospital,0,"[""4188681032"", ""4188681318"", ""4188681767""]","{""4188681032"": ""general inquiries / general communications"", ""4188681318"": ""referrals / examination requests for radiology"", ""4188681767"": ""referrals / examination requests for nuclear medicine""}"
Bas Saint Laurent,0479X,CENTRE D'HEBERGEMENT DE SAINT-PACOME 4,"127 GALARNEAU CP 280, SAINT-PACOME, QC, G0L 3X0",,114.0,ChIJqTfFDpTvvkwRS8ljT-rNWEo,Residence La Croisee-Chemins,Saint-Pacôme,CA,QC,G0L 3X0,+1 418-852-2311,,hospital,,47.398984,-69.9509181,1745790598,hospital,0,"[""4188563948""]","{""4188563948"": ""general inquiries""}"
Bas Saint Laurent,0488X,CENTRE D'HEBERGEMENT DE SQUATEC,"10 SAINT-ANDRE, SAINT-MICHEL-DU-SQUATEC, QC, G0L 4H0","1,4,7",115.0,ChIJEdZqOfz7vUwReZIgMoaHp-M,Centre d'hébergement de Squatec,Saint-Michel-du-Squatec,CA,QC,G0L 4H0,+1 418-855-2442,,hospital,http://www.cisss-bsl.gouv.qc.ca/,47.8773855,-68.7231258,1745790598,hospital,0,"[""4188552357""]","{""4188552357"": ""general inquiries""}"
Bas Saint Laurent,0496X,CSSS DE LA MITIS,"800 AV DU SANATORIUM, MONT-JOLI, QC, G5H 3L6","1,3,4,5,6,7,8",116.0,ChIJzc4ZL1OHlkwRILgscw9QPiM,Centre De Readaptation En,Mont-Joli,CA,QC,G5H 3L6,+1 418-775-7261,,pharmacy,,48.572149,-68.2157357,1745790598,clinic,0,"[""418-775-3379"", ""418-775-1360"", ""4187753379"", ""4187751360""]","{""418-775-3379"": ""appointments (transmitting medical prescriptions to schedule exams and tests)"", ""4187753379"": ""appointments (transmitting medical prescriptions to schedule exams and tests)"", ""418-775-1360"": ""patient care (hospice, respite care, bereavement support, therapeutic services)"", ""4187751360"": ""patient care (hospice, respite care, bereavement support, therapeutic services)""}"
Bas Saint Laurent,0498X,CENTRE D'HEBERGEMENT DE RIVIERE-DU-LOUP,"28 JOLY, RIVIERE-DU-LOUP, QC, G5R 3H2","4,5",117.0,ChIJyZ_hr1BHvkwRa8wRqbzI3Ck,Centre d'hébergement de Rivière-du-Loup,Rivière-du-Loup,CA,QC,G5R 3H2,+1 418-868-1000,,hospital,http://www.cisss-bsl.gouv.qc.ca/,47.83398829999999,-69.5422482,1745790598,hospital,0,"[""4188681000""]","{""4188681000"": ""general inquiries / administrative (main fax number; specific department purposes not specified)""}"
Bas Saint Laurent,0789X,LA MAISON DESJARDINS DE SOINS PALLIATIFS DU KRTB 0,"44 RUE DES CHAUFFAILLES, RIVIERE-DU-LOUP, QC, G5R 4E1",,118.0,ChIJu6VhcMpAvkwRTsl147rRgdk,Fondation De La Maison Desjardins De Soins Palliatifs Du Krtb,Rivière-du-Loup,CA,QC,G5R 4E1,+1 418-860-0240,,pharmacy,https://maisondesjardins.com/,47.8183249,-69.538021,1745790598,clinic,0,"[""4188600247""]","{""4188600247"": ""general (purpose not specifically stated; likely used for general administration, referrals, or medical records based on typical healthcare facility practices)""}"
Bas Saint Laurent,0816X,CLSC DE POHENEGAMOOK,"1922 SAINT-VALLIER CP 70, POHENEGAMOOK, QC, G0L 1J0","1,7",119.0,ChIJjS1Ufm5-vkwRvAoIICsNw8c,CLSC of Pohenegamook,Pohénégamook,CA,QC,G0L 1J0,+1 418-859-2450,,hospital,,47.48968620000001,-69.2811638,1745790598,hospital,0,"[""4188593362"", ""4188591285""]","{""4188593362"": """", ""4188591285"": ""specific department or service within the clsc. ([callupcontact.com](https://www.callupcontact.com/b/hospitals_amp_medical_centers/clsc/5443573?utm_source=openai))""}"
Bas Saint Laurent,0878X,CRDI - TSA ET CRDP THERESE-MARTIN 3,"100 CH DE LA PETITE-ANSE, RIVIERE-OUELLE, QC, G0L 2C0",,120.0,,,,,,,,,,,,,1745790598,,0,"[""4188561435""]","{""4188561435"": ""general inquiries""}"
Bas Saint Laurent,0879X,CENTRE D'HEBERGEMENT DE SAINT-ANTONIN 3,"286 RUE PRINCIPALE, SAINT-ANTONIN, QC, G0L 2J0",,121.0,ChIJQVTCS-9BvkwRm2sFPuoCBZE,Centre D'Hebergement St Antn,Saint-Antonin,CA,QC,G0L 2J0,+1 418-862-9521,,hospital,https://www.cisss-bsl.gouv.qc.ca/,47.7623217,-69.4787422,1745790598,hospital,0,"[""4188625278""]","{""4188625278"": ""general inquiries""}"
Bas Saint Laurent,10305,CENTRE D'HEBERGEMENT MARIE-ANNE-OUELLET,"6 TURBIDE, LAC-AU-SAUMON, QC, G0J 1M0",,122.0,ChIJ5XRhq5oAl0wRM7SLP-x_zQY,Centre d'hébergement Marie-Anne Ouellet (CHSLD),Lac-au-Saumon,CA,QC,G0J 1M0,+1 418-778-5816,,hospital,https://www.cisss-bsl.gouv.qc.ca/,48.41814419999999,-67.3467864,1745790598,hospital,0,"[""4187783391""]","{""4187783391"": ""general inquiries (potentially also used for medical records, referrals, or general administration, but the specific purpose is not detailed in the available information)""}"
Bas Saint Laurent,10333,CR EN DEFICIENCE INTELLECTUELLE DU BAS-SAINT-LAURENT,"101 RUE DE L'EGLISE, SAINT-CYPRIEN, QC, G0L 2P0",,123.0,ChIJ17p0rMYPvkwRACXk_6911ds,Centre multiservices de Saint-Cyprien,Saint-Cyprien,CA,QC,G0L 2P0,+1 418-862-9560,,pharmacy,http://www.cisss-bsl.gouv.qc.ca/,47.892535,-69.02029399999999,1745790598,clinic,0,"[""4189632617""]","{""4189632617"": ""medical records, support for individuals with intellectual disabilities and autism spectrum disorders, general center communications""}"
Bas Saint Laurent,10585,CENTRE D'HEBERGEMENT DE RIMOUSKI,"645 BOUL SAINT-GERMAIN O, RIMOUSKI, QC, G5L 3S2",,124.0,ChIJ0ZXjbdfblUwRdN_uJFZU2Kw,Centre d’hébergement de Rimouski,Rimouski,CA,QC,G5L 3S2,+1 418-724-4111,,clinic,,48.4350166,-68.5718921,1745790598,clinic,0,"[""4187240604""]","{""4187240604"": ""general inquiries (purpose not specifically stated, likely serves general or administrative purposes)""}"
Bas Saint Laurent,10595,CENTRE DE JOUR LA POCATIERE,"402 1E RUE, LA POCATIERE, QC, G0R 1Z0",,125.0,ChIJF2ZEltvlvkwRAdKJA6tJLQg,Galeries La Pocatière (Les),La Pocatière,CA,QC,G0R 1Z0,+1 418-856-1550,,clinic,https://www.lecentrelapocatiere.com/,47.3596991,-70.05540959999999,1745790598,clinic,0,"[""4188565465"", ""4183710596"", ""4188565293""]","{""4188565465"": ""admin (municipal services/general administration)"", ""4183710596"": ""admin (general administration/support services)"", ""4188565293"": ""referrals (youth services/social services)""}"
Bas Saint Laurent,11135,CENTRE D'HEBERGEMENT DE RIVIERE-BLEUE,"45 RUE DU FOYER S, RIVIERE-BLEUE, QC, G0L 2B0",,126.0,ChIJ5XMnZifTvUwRqnm9QxOnHXc,CLSC-Riviere-Bleue,Rivière-Bleue,CA,QC,G0L 2B0,+1 418-893-5549,,hospital,http://www.cisss-bsl.gouv.qc.ca/,47.4324264,-69.0386505,1745790598,hospital,0,"[""418-893-7151"", ""418-893-1084"", ""4188931084"", ""4188937151""]","{""418-893-7151"": ""centre d'h\u00e9bergement de rivi\u00e8re-bleue (same as above; alternate formatting)"", ""4188937151"": ""centre d'h\u00e9bergement de rivi\u00e8re-bleue (same as above; alternate formatting)"", ""418-893-1084"": ""clsc de rivi\u00e8re-bleue (same as above; alternate formatting)"", ""4188931084"": ""clsc de rivi\u00e8re-bleue (same as above; alternate formatting)""}"
Bas Saint Laurent,11173,CRJDA DE RIMOUSKI-NEIGETTE,"404 AV ROSS, RIMOUSKI, QC, G5L 6J2",,127.0,ChIJbWUWrwjZlUwRQgYrfZ2TFuk,Centre de formation Rimouski-Neigette,Rimouski,CA,QC,G5L 5C7,+1 418-722-4922,,pharmacy,https://cfrn.cssphares.gouv.qc.ca/,48.4321698,-68.52363489999999,1745790598,clinic,0,"[""4187240392"", ""4187224957""]","{""4187240392"": ""general inquiries, administrative purposes"", ""4187224957"": ""business services, community programs (services to businesses and the community department)""}"
Bas Saint Laurent,11243,CENTRE DE SANTE ET DE SERVICES SOCIAUX DE LA MITIS,"800 AV DU SANATORIUM, MONT-JOLI, QC, G5H 3L6",,128.0,ChIJzc4ZL1OHlkwRILgscw9QPiM,Centre De Readaptation En,Mont-Joli,CA,QC,G5H 3L6,+1 418-775-7261,,clinic,,48.572149,-68.2157357,1745790598,clinic,0,"[""4187753379"", ""4187751360""]","{""4187751360"": ""general inquiries, admin"", ""4187753379"": ""appointments, referrals (radiology/services), patient care (diagnostic and lab services)""}"
Bas Saint Laurent,11345,CENTRE D'HEBERGEMENT DE MATANE,"150 AV SAINT-JEROME, MATANE, QC, G4W 3A2",,129.0,ChIJW6SNTeLAlkwRBiGKa9WhM0M,CHSLD (Foyer D'Accueil) de Matane,Matane,CA,QC,G4W 3A2,+1 418-562-4154,,hospital,,48.8409564,-67.5321025,1745790598,hospital,0,"[""4185629281""]","{""4185629281"": ""general inquiries""}"
Bas Saint Laurent,11565,CENTRE D'HEBERGEMENT DE SAINT-LOUIS-DU-HA!HA!,"25 SAINT-PHILIPPE, SAINT-LOUIS-DU-HA! HA!, QC, G0L 3S0",,130.0,ChIJpY5-cYHfvUwRdsvHXte3TxA,Centre d'hébergement St-Louis-du-Ha! Ha!,Saint-Louis-du-Ha! Ha!,CA,QC,G0L 3S0,+1 418-854-2631,,hospital,http://www.cisss-bsl.gouv.qc.ca/,47.67451469999999,-68.9792938,1745790598,hospital,0,"[""4188540430"", ""4188543930""]","{""4188540430"": ""general inquiries"", ""4188543930"": ""additional/general use (specific purpose not specified)""}"
Bas Saint Laurent,11905,CENTRE D'HEBERGEMENT DE SAINT-ANTONIN,"286 PRINCIPALE, SAINT-ANTONIN, QC, G0L 2J0",,131.0,ChIJQVTCS-9BvkwRm2sFPuoCBZE,Centre D'Hebergement St Antn,Saint-Antonin,CA,QC,G0L 2J0,+1 418-862-9521,,hospital,https://www.cisss-bsl.gouv.qc.ca/,47.7623217,-69.4787422,1745790598,hospital,0,"[""418-862-5278"", ""4188625278""]","{""418-862-5278"": ""general inquiries (same number as above, just formatted differently)"", ""4188625278"": ""general inquiries (same number as above, just formatted differently)""}"
Bas Saint Laurent,18325,CENTRE D'HEBERGEMENT DE SAINT-CYPRIEN,"101C RUE COLLIN, SAINT-CYPRIEN, QC, G0L 2P0",,132.0,ChIJ7Si7t9EPvkwRbB9nINpYBAI,CLSC et Centre d'hébergement de Saint-Cyprien,Saint-Cyprien,CA,QC,G0L 2P0,+1 418-867-2642,,hospital,http://www.cisss-bsl.gouv.qc.ca/,47.8957099,-69.0235824,1745790598,hospital,0,"[""4189637971""]","{""4189637971"": ""general communications and administrative matters related to the clsc's services""}"
Bas Saint Laurent,18433,CR EN DEFICIENCE PHYSIQUE DE RIMOUSKI-NEIGETTE,"320 RUE SAINT-GERMAIN E 3E ETAGE, RIMOUSKI, QC, G5L 1C2",,133.0,ChIJSzffE-rZlUwRa5ek6WIHSMc,Centre Regional-Readaptation,Rimouski,CA,QC,G5L 1C2,+1 418-722-7777,,hospital,,48.460242,-68.517654,1745790598,hospital,0,[],{}
Bas Saint Laurent,19065,CHSLD DE CHAUFFAILLES,"60 RUE DE CHAUFFAILLES, RIVIERE-DU-LOUP, QC, G5R 4V6",,134.0,ChIJvXTPanJBvkwRgdT4bs0lJno,CHSLD De Chauffailles,Rivière-du-Loup,CA,QC,G5R 4E1,+1 418-867-8370,,hospital,http://www.cisss-bsl.gouv.qc.ca/,47.8171997,-69.5391159,1745790598,hospital,0,"[""418-862-1454"", ""4188621454""]","{""418-862-1454"": ""general inquiries"", ""4188621454"": ""general inquiries""}"
Bas Saint Laurent,19595,MDA MA DE RIVIERE-DU-LOUP,"5 RUE SAINTE-ANNE, RIVIERE-DU-LOUP, QC, G5R 1N4",,135.0,ChIJU6UWDXVHvkwRfcSu0MkzPLo,Maison des aînés et alternative de Rivière-du-Loup,Rivière-du-Loup,CA,QC,G5R 2V3,+1 418-868-1298,,pharmacy,,47.83241419999999,-69.534105,1745790598,clinic,0,[],{}
Bas Saint Laurent,19705,MDA MA DE RIMOUSKI,"490 AV LEONIDAS S, RIMOUSKI, QC, G5M 0T8",,136.0,ChIJ3YGJAADZlUwRPvdFxwq7wi8,Maison des aînés et alternative de Rimouski (2022),Rimouski,CA,QC,G5M 0T8,+1 418-734-3121,,hospital,,48.4485,-68.4948299,1745790598,hospital,0,[],{}
Bas Saint Laurent,23595,CENTRE D'HEBERGEMENT VILLA MARIA,"404 AV DU FOYER, SAINT-ALEXANDRE-DE-KAMOURASKA, QC, G0L 2G0",,137.0,ChIJLSfIWrFcvkwR6GjcXX7ky2k,Centre Villa Maria,Saint-Alexandre-de-Kamouraska,CA,QC,G0L 2G0,+1 418-856-7000,,hospital,,47.68550049999999,-69.6199809,1745790598,hospital,0,"[""4184952829"", ""4184921951""]","{""4184921951"": ""general inquiries, admin"", ""4184952829"": ""unspecified/alternative (likely general or overflow, specific departmental use not stated)""}"
Bas Saint Laurent,43040,HOPITAL NOTRE-DAME-DE-FATIMA,"1201 6E AVENUE PILOTE, LA POCATIERE, QC, G0R 1Z0",,138.0,ChIJV22cD8DlvkwRDnt8P5DTxOo,Hospital Notre-Dame-De-Fatima,La Pocatière,CA,QC,G0R 1Z0,+1 418-856-7000,,hospital,,47.37203539999999,-70.026078,1745790598,hospital,0,"[""4188565916"", ""4188564737""]","{""4188564737"": ""general inquiries, admin"", ""4188565916"": ""medical records""}"
Bas Saint Laurent,43250,HOPITAL D'AMQUI,"135 AV GAETAN-ARCHAMBAULT, AMQUI, QC, G5J 2K5",,139.0,ChIJES0aWUr-lkwRsZw2ndtuXoU,Hospital D'amqui,Amqui,CA,QC,G5J 2K5,+1 418-629-2211,,hospital,https://www.cisss-bsl.gouv.qc.ca/,48.4689687,-67.420262,1745790598,hospital,0,"[""4186291971"", ""4186291211""]","{""4186291971"": ""medical records"", ""4186291211"": ""general inquiries (multiservice center)""}"
Bas Saint Laurent,43310,HOPITAL DE MATANE,"333 RUE THIBAULT, MATANE, QC, G4W 2W5",,140.0,ChIJN5gbUx7BlkwR2uwPFoNbzPI,Hôpital de Matane,Matane,CA,QC,G4W 2W5,+1 418-562-3135,,hospital,https://www.cisss-bsl.gouv.qc.ca/,48.84355540000001,-67.5243765,1745790598,hospital,0,"[""4185621875"", ""4185629374"", ""4185629281""]","{""4185629374"": ""general inquiries (main/general fax line for the hospital)"", ""4185621875"": ""general inquiries or alternative hospital fax (secondary/general use, not tied to a specific department)"", ""4185629281"": ""patient care or admin (fax for centre d'h\u00e9bergement de matane, a long-term care facility)""}"
Bas Saint Laurent,43330,HOPITAL DE NOTRE-DAME-DU-LAC,"58 DE L'EGLISE, TEMISCOUATA-SUR-LE-LAC, QC, G0L 1X0",,141.0,ChIJo7KS4JvEvUwROjNbYGWSDM0,Hôpital de Notre-Dame-du-Lac,Témiscouata-sur-le-Lac,CA,QC,G0L 1X0,+1 418-899-6751,,hospital,http://www.cisss-bsl.gouv.qc.ca/,47.6122385,-68.7992962,1745790598,hospital,0,"[""4188992809""]","{""4188992809"": ""general inquiries (serves as the general fax line for the hospital)""}"
Bas Saint Laurent,43340,HOPITAL REGIONAL DE RIMOUSKI,"150 AV ROULEAU, RIMOUSKI, QC, G5L 5T1",,142.0,ChIJ9VreMZjZlUwRUfon-pBrj9o,Rimouski Regional Hospital,Rimouski,CA,QC,G5L 5T1,+1 418-724-3000,,hospital,http://www.cisss-bsl.gouv.qc.ca/,48.4468546,-68.530918,1745790598,hospital,0,"[""4187248602"", ""4187237668"", ""4187233025"", ""4187248635"", ""4187248619""]","{""4187248602"": ""emergency department (patient care, urgent referrals, emergency communication)"", ""4187237668"": ""family medicine unit (referrals, patient care, records relating to family medicine)"", ""4187233025"": ""main hospital fax (general inquiries, general hospital communication, may include admin or records)"", ""4187248635"": ""general administration (administration, official hospital business, potentially billing, non-clinical matters)"", ""4187248619"": ""laboratory (lab requests, lab results, medical records related to laboratory work, test orders and communications)""}"
Bas Saint Laurent,43341,HOPITAL REGIONAL DE RIMOUSKI,"150 AV ROULEAU, RIMOUSKI, QC, G5L 5T1",,143.0,ChIJ9VreMZjZlUwRUfon-pBrj9o,Rimouski Regional Hospital,Rimouski,CA,QC,G5L 5T1,+1 418-724-3000,,hospital,http://www.cisss-bsl.gouv.qc.ca/,48.4468546,-68.530918,1745790598,hospital,0,"[""4187248662"", ""4187240604""]","{""4187248662"": ""occupational health services (workplace health and safety communications)"", ""4187240604"": ""senior support program (services/programs for seniors\u2019 autonomy and well-being)""}"
Bas Saint Laurent,43400,CENTRE HOSPITALIER REGIONAL DU GRAND-PORTAGE,"75 SAINT-HENRI, RIVIERE-DU-LOUP, QC, G5R 2A4",,144.0,ChIJf4n66MpAvkwR2miTI5-4xTw,Regional Hospital Du Grand-Portage,Rivière-du-Loup,CA,QC,G5R 2A4,+1 418-868-1000,,hospital,https://www.cisss-bsl.gouv.qc.ca/,47.8184192,-69.5401882,1745790598,hospital,0,"[""4188681032"", ""4188681318"", ""4188681767""]","{""4188681032"": ""general"", ""4188681318"": ""general"", ""4188681767"": ""general""}"
Bas Saint Laurent,43401,CENTRE HOSPITALIER REGIONAL DU GRAND-PORTAGE,"75 SAINT-HENRI, RIVIERE-DU-LOUP, QC, G5R 2A4",,145.0,ChIJf4n66MpAvkwR2miTI5-4xTw,Regional Hospital Du Grand-Portage,Rivière-du-Loup,CA,QC,G5R 2A4,+1 418-868-1000,,hospital,https://www.cisss-bsl.gouv.qc.ca/,47.8184192,-69.5401882,1745790598,hospital,0,"[""4188681032"", ""4188681318"", ""4188681767""]","{""4188681032"": ""general inquiries / general communications"", ""4188681318"": ""referrals / examination requests for radiology"", ""4188681767"": ""referrals / examination requests for nuclear medicine""}"
Bas Saint Laurent,44679,CRJDA DE RIMOUSKI-NEIGETTE,"404 AV ROSS, RIMOUSKI, QC, G5L 6J2",,146.0,ChIJbWUWrwjZlUwRQgYrfZ2TFuk,Centre de formation Rimouski-Neigette,Rimouski,CA,QC,G5L 5C7,+1 418-722-4922,,pharmacy,https://cfrn.cssphares.gouv.qc.ca/,48.4321698,-68.52363489999999,1745790598,clinic,0,"[""4187254263""]","{""4187254263"": ""general inquiries""}"
Bas Saint Laurent,47890,LA MAISON DESJARDINS DE SOINS PALLIATIFS DU KRTB,"44 RUE DES CHAUFFAILLES, RIVIERE-DU-LOUP, QC, G5R 4E1",,147.0,ChIJu6VhcMpAvkwRTsl147rRgdk,Fondation De La Maison Desjardins De Soins Palliatifs Du Krtb,Rivière-du-Loup,CA,QC,G5R 4E1,+1 418-860-0240,,pharmacy,https://maisondesjardins.com/,47.8183249,-69.538021,1745790598,clinic,0,"[""4188600247""]","{""4188600247"": ""general inquiries / main office""}"
Bas Saint Laurent,51004,CLINIQUE D'HYGIENE DENTAIRE ANNIE DIONNE,"210-750 AV DU PHARE O, MATANE, QC, G4W 3W8",,148.0,ChIJL5FOuEXBlkwRi_mV9WSeeyc,Clinique d'hygiène dentaire Annie Dionne,Matane,CA,QC,G4W 3W8,+1 418-560-0360,,hospital,http://www.cliniqueanniedionne.com/,48.8528876,-67.535657,1745790598,hospital,0,[],{}
Bas Saint Laurent,51017,KARINE LALLEMAND HYGIENISTE DENTAIRE MOBILE,"112-125 BOUL RENE-LEPAGE E, RIMOUSKI, QC, G5L 1N9",,149.0,ChIJX7Ix7sbZlUwRX7kmeZhLIXg,Clinique d'hygiène dentaire Rimouski,Rimouski,CA,QC,G5L 1N9,+1 418-732-8622,,hospital,https://karinelallemand.com/,48.45349,-68.5238281,1745790598,hospital,0,[],{}
Bas Saint Laurent,51018,CLINIQUE D'HYGIENE DENTAIRE LEONIE BELLAVANCE-ROY,"A-558 RUE SAINT-JACQUES N, CAUSAPSCAL, QC, G0J 1J0",,150.0,ChIJX-8vQTCpl0wR_1w0MQw9FP0,Clinique d'hygiène dentaire Léonie B.Roy,Causapscal,CA,QC,G0J 1J0,+1 418-631-5807,,hospital,,48.3702824,-67.2386776,1745790598,hospital,0,[],{}
Bas Saint Laurent,52018,CLINIQUE D'OPTOMETRIE JOHANNE VILLENEUVE,"115 LEOPOLD, AMQUI, QC, G5J 3K3",,151.0,ChIJS_gRZ6z_lkwRCjEUj7prTTg,Johanne Villenuve,Amqui,CA,QC,G5J 3K3,+1 418-629-2061,,hospital,,48.46714370000001,-67.4415233,1745790598,hospital,0,[],{}
Bas Saint Laurent,52019,CLINIQUE OPTOMETRIQUE D'AMQUI ENR,"37 SAINT-BENOIT, AMQUI, QC, G5J 2B8",,152.0,ChIJxRjl1rP_lkwREAu5DDoYnYQ,Clinique Visuelle d'Amqui,Amqui,CA,QC,G5J 3G2,+1 418-629-5873,,hospital,,48.4642326,-67.4335526,1745790598,hospital,0,"[""4186292818""]","{""4186292818"": ""general inquiries (potentially also used for appointments, referrals, medical records, admin, and billing, as there is no specific information indicating otherwise)""}"
Bas Saint Laurent,52020,CLINIQUE OPTOMETRIQUE D'AMQUI ENR,"4 MORIN, CAUSAPSCAL, QC, G0J 1J0",,153.0,,,,,,,,,,,,,1745790598,,0,"[""4186292818""]","{""4186292818"": ""general inquiries, referrals, medical records, admin (potentially all purposes, as only one fax number is listed for the clinic)""}"
Bas Saint Laurent,52022,CLINIQUE D'OPTOMETRIE DU TEMIS,"105 COMMERCIALE, CABANO, QC, G0L 1E0",,154.0,ChIJY8k07cjdvUwRYlR62JTfwMY,Clinique D'Optométrie Du Témis,Témiscouata-sur-le-Lac,CA,QC,G0L 1E0,+1 418-854-2443,,hospital,,47.6836409,-68.8798022,1745790598,hospital,0,"[""4188549150""]","{""4188549150"": ""general communications""}"
Bas Saint Laurent,52023,SERGE MICHAUD OPTOMETRISTE,"328 3E RUE, DEGELIS, QC, G5T 1W6",,155.0,ChIJrwVH_njHvUwRVVHCXArinK0,Serge Michaud OD,Dégelis,CA,QC,G5T 1W6,+1 418-853-3708,,hospital,,47.5500038,-68.65151019999999,1745790598,hospital,0,"[""4188539176"", ""4188532768""]","{""4188539176"": ""//www.profilecanada.com/companydetail.cfm?company=813480_serge_michaud_od_dgelis_qc&utm_source=openai)) for precise information regarding the appropriate fax number for your needs, i recommend contacting the clinic directly at **418-853-3708**."", ""4188532768"": ""//www.profilecanada.com/companydetail.cfm?company=813480_serge_michaud_od_dgelis_qc&utm_source=openai)) for precise information regarding the appropriate fax number for your needs, i recommend contacting the clinic directly at **418-853-3708**.""}"
Bas Saint Laurent,52024,"LISE DUFRESNE INC., OPTOMETRISTE","269 TACHE N, SAINT-PASCAL, QC, G0L 3Y0",,156.0,ChIJO1c4JVL2vkwRGZ0swiFJcGM,Centre Visuel Saint-Pascal Inc,Saint-Pascal,CA,QC,G0L 3Y0,+1 418-492-1430,,hospital,https://www.centrevisuelstpascal.com/,47.5308783,-69.8118965,1745790598,hospital,0,"[""4184922832""]","{""4184922832"": ""general inquiries""}"
Bas Saint Laurent,52093,RODRIGUE GAGNON OPTOMETRISTE,"150 SAINT-PIERRE, MATANE, QC, G4W 2B5",,157.0,ChIJgfF3tdzAlkwRZEa9_UOeARs,Visique - Matane,Matane,CA,QC,G4W 3W8,+1 418-562-6656,,hospital,https://visique.com/pages/visique-matane,48.8528876,-67.535657,1745790598,hospital,0,"[""4185431229""]","{""4185431229"": ""//openbiz.ca/industry/852691-gagnon-rodrigue-dr-optometriste/?utm_source=openai)) however, specific purposes such as general inquiries, appointments, referrals, medical records, patient care, administration, or billing are not detailed in the available information. for precise details regarding the use of this fax number, i recommend contacting the clinic directly at their main phone number: **418-562-0312**.""}"
Bas Saint Laurent,52094,CLINIQUE VISUELLE DE MATANE ENR.,"258 SOUCY, MATANE, QC, G4W 2E3",,158.0,ChIJgfF3tdzAlkwRZEa9_UOeARs,Visique - Matane,Matane,CA,QC,G4W 3W8,+1 418-562-6656,,hospital,https://visique.com/pages/visique-matane,48.8528876,-67.535657,1745790598,hospital,0,"[""4185622108""]","{""4185622108"": ""main operations / general inquiries""}"
Bas Saint Laurent,52095,OPTO VISION MATANE,"449 SAINT-JEROME, MATANE, QC, G4W 3B7",,159.0,ChIJgfF3tdzAlkwRZEa9_UOeARs,Visique - Matane,Matane,CA,QC,G4W 3W8,+1 418-562-6656,,hospital,https://visique.com/pages/visique-matane,48.8528876,-67.535657,1745790598,hospital,0,"[""4185622108"", ""4185662982"", ""4185622015"", ""4185621236""]","{""4185622108"": ""** all provided fax numbers are currently designated for general communications. for more specific usage (e.g., billing, direct patient care, dedicated referrals, etc.), direct confirmation from each clinic would be required."", ""4185662982"": ""** all provided fax numbers are currently designated for general communications. for more specific usage (e.g., billing, direct patient care, dedicated referrals, etc.), direct confirmation from each clinic would be required."", ""4185622015"": ""** all provided fax numbers are currently designated for general communications. for more specific usage (e.g., billing, direct patient care, dedicated referrals, etc.), direct confirmation from each clinic would be required."", ""4185621236"": ""** all provided fax numbers are currently designated for general communications. for more specific usage (e.g., billing, direct patient care, dedicated referrals, etc.), direct confirmation from each clinic would be required.""}"
Bas Saint Laurent,52096,BOURGET ET JOLY OPTOMETRISTES,"750 AV DU PHARE O, MATANE, QC, G4W 3W8",,160.0,ChIJgfF3tdzAlkwRZEa9_UOeARs,Visique - Matane,Matane,CA,QC,G4W 3W8,+1 418-562-6656,,hospital,https://visique.com/pages/visique-matane,48.8528876,-67.535657,1745790598,hospital,0,"[""418-562-2015"", ""4185622015""]","{""418-562-2015"": ""general inquiries"", ""4185622015"": ""general inquiries""}"
Bas Saint Laurent,52108,BOURGET ET JOLY OPTOMETRISTES,"1534 BOUL JACQUES-CARTIER, MONT-JOLI, QC, G5H 2V8",,161.0,ChIJUUdzK1OHlkwRXKPGvIGtW4U,Opto-Réseau En Vue Mont-Joli,Mont-Joli,CA,QC,G5H 2V4,+1 418-775-7236,,hospital,https://www.opto-reseau.com/fr/cliniques/clinique-en-vue-de-mont-joli,48.5876353,-68.1908559,1745790598,hospital,0,"[""418-724-9504"", ""819-568-7006"", ""8195687006"", ""4187249504""]","{""418-724-9504"": ""general clinic fax for rimouski location (same as above, alternative formatting)"", ""4187249504"": ""general clinic fax for rimouski location (same as above, alternative formatting)"", ""819-568-7006"": ""general clinic fax for matane location (same as above, alternative formatting)"", ""8195687006"": ""general clinic fax for matane location (same as above, alternative formatting)""}"
Bas Saint Laurent,52109,CLINIQUE D'OPTOMETRIE DE MONT-JOLI,"1564 BOUL. JACQUES-CARTIER, MONT-JOLI, QC, G5H 2V8",,162.0,ChIJUUdzK1OHlkwRXKPGvIGtW4U,Opto-Réseau En Vue Mont-Joli,Mont-Joli,CA,QC,G5H 2V4,+1 418-775-7236,,hospital,https://www.opto-reseau.com/fr/cliniques/clinique-en-vue-de-mont-joli,48.5876353,-68.1908559,1745790598,hospital,0,"[""4187759873""]","{""4187759873"": ""general communications (including general inquiries, appointments, referrals, medical records, patient care, admin, billing, etc.)""}"
Bas Saint Laurent,52110,OPTO VISION MONT-JOLI,"1760 GABOURY, MONT-JOLI, QC, G5H 3S7",,163.0,ChIJi8HxIVaHlkwRLFjEJVCI240,Visique - Mont-Joli,Mont-Joli,CA,QC,G5H 3S7,+1 418-775-3436,,hospital,https://visique.com/pages/visique-mont-joli,48.5793899,-68.1862427,1745790598,hospital,0,"[""4187753286""]","{""4187753286"": ""general inquiries""}"
Bas Saint Laurent,52111,OPTO VISION RIMOUSKI,"288 SAINT-GERMAIN E, RIMOUSKI, QC, G5L 1B9",,164.0,ChIJQ0UIEZXZlUwREs3Sc6cWfjI,LASER PROVUE,Rimouski,CA,QC,G5L 8G1,+1 418-723-5008,,hospital,http://www.laserprovue.com/,48.45587889999999,-68.5218158,1745790598,hospital,0,"[""418-721-0375"", ""4187210375""]","{""418-721-0375"": ""general inquiries (same as above; this is the same number written without dashes, referencing the single fax line for the clinic)"", ""4187210375"": ""general inquiries (same as above; this is the same number written without dashes, referencing the single fax line for the clinic)""}"
Bas Saint Laurent,52112,CLINIQUE VISUELLE DE RIMOUSKI,"53 DE L'EVECHE O, RIMOUSKI, QC, G5L 4H4",,165.0,ChIJzUOjAJjZlUwRWoF7McSRZ3Y,Clinique Visuelle de Rimouski,Rimouski,CA,QC,G5L 4H4,+1 418-724-9822,,hospital,http://www.411sante.com/lunettes/bas-saint-laurent/rimouski-3/lunettes_rimouski_bas-saint-laurent_opticien_optometriste.htm,48.4474454,-68.52578129999999,1745790598,hospital,0,"[""418-724-9823"", ""4504585279"", ""6471396115"", ""9028565057"", ""2895361105"", ""7807735799"", ""4187249823""]","{""418-724-9823"": ""general inquiries, appointments, prescription orders, administrative purposes"", ""4187249823"": ""general inquiries, appointments, prescription orders, administrative purposes"", ""4504585279"": ""purpose not specified (unknown)"", ""6471396115"": ""purpose not specified (unknown)"", ""9028565057"": ""purpose not specified (unknown)"", ""2895361105"": ""purpose not specified (unknown)"", ""7807735799"": ""purpose not specified (unknown)""}"
Bas Saint Laurent,52113,BELZILE PIERRE-P. OPTOMETRISTE,"37 8E RUE O, RIMOUSKI, QC, G5L 5B3",,166.0,ChIJqQyoeKTZlUwRuEcL2RPBU2s,Visique - Rimouski,Rimouski,CA,QC,G5L 8B3,+1 418-723-7127,,hospital,https://visique.com/pages/visique-rimouski,48.4432334,-68.52123259999999,1745790598,hospital,0,[],{}
Bas Saint Laurent,52114,SALON D'OPTIQUE RIMOUSKI,"419 BOUL JESSOP, RIMOUSKI, QC, G5L 7Y5",,167.0,ChIJmedUXObZlUwRVDEUM9lft_k,Boutique l'univers de la Coiffure,Rimouski,CA,QC,G5L 7Y5,+1 418-724-5008,,pharmacy,http://www.boutiqueetcoiffurenelsonfortin.com/,48.46801799999999,-68.5160499,1745790598,clinic,0,[],{}
Bas Saint Laurent,52115,IRIS CLINIQUE D'OPTOMETRIE,"350 AV DE LA CATHEDRALE, RIMOUSKI, QC, G5L 5K3",,168.0,ChIJlfXF0aTZlUwRNJ6jYnYgoIo,IRIS,Rimouski,CA,QC,G5L 5K3,+1 418-723-3436,,hospital,https://iris.ca/fr/trouver-une-boutique/rimouski,48.4448375,-68.5171034,1745790598,hospital,0,"[""4187247833""]","{""4187247833"": ""purpose not specified (likely general clinic use, possibly for general inquiries, referrals, or medical records, but not publicly confirmed)""}"
Bas Saint Laurent,52116,BOURGET ET JOLY OPTOMETRISTES,"92 2E RUE O, RIMOUSKI, QC, G5L 8B3",,169.0,ChIJm2YoEqTZlUwReVcGONGgd1o,Bourget et Joly Optométristes,Rimouski,CA,QC,G5L 8B3,+1 418-723-7127,,hospital,,48.4433933,-68.52123329999999,1745790598,hospital,0,"[""4187249504""]","{""4187249504"": ""general inquiries (no specific purpose designated publicly; likely used for general communications including referrals, records, and admin, but confirmation is needed from the clinic)""}"
Bas Saint Laurent,52117,LEMIEUX ET VAILLANCOURT INC,"324 LAFONTAINE CP 580, RIVIERE-DU-LOUP, QC, G5R 3B1",,170.0,ChIJoXUKS1JHvkwRH-o7ih0ZTBA,Opto-Réseau - Lemieux Vaillancourt,Rivière-du-Loup,CA,QC,G5R 3B1,+1 418-862-8703,,hospital,https://www.opto-reseau.com/cliniques/lemieux-vaillancourt-riviere-du-loup/,47.8323313,-69.536845,1745790598,hospital,0,"[""418-862-4687"", ""4188624687""]","{""418-862-4687"": ""general communications / general inquiries"", ""4188624687"": ""general communications / general inquiries""}"
Bas Saint Laurent,52118,CENTRE VISUEL DU K.R.T.,"298 THERIAULT, RIVIERE-DU-LOUP, QC, G5R 4C2",,171.0,ChIJS9V19txHvkwRnl46Pu0Iyi8,Centre Visuel du KRT,Rivière-du-Loup,CA,QC,G5R 4C2,+1 418-862-7663,,hospital,https://www.centrevisuelkrt.com/,47.8242149,-69.54833529999999,1745790598,hospital,0,"[""4188626605""]","{""4188626605"": ""purpose unspecified (likely general or administrative use, but not explicitly stated)""}"
Bas Saint Laurent,52817,CLINIQUE D'OPTOMETRIE DE RIMOUSKI,"80 PLACE SAINT-GERMAIN E GR. PLACE, RIMOUSKI, QC, G5L 3H8",,172.0,ChIJqQyoeKTZlUwRuEcL2RPBU2s,Visique - Rimouski,Rimouski,CA,QC,G5L 8B3,+1 418-723-7127,,hospital,https://visique.com/pages/visique-rimouski,48.4432334,-68.52123259999999,1745790598,hospital,0,"[""4187239284""]","{""4187239284"": ""general inquiries (no specific departmental assignment specified)""}"
Bas Saint Laurent,52822,PASCAL MICHAUD O.D.,"103-30 FRONTENAC, RIVIERE-DU-LOUP, QC, G5R 1S5",,173.0,ChIJJyoXurVHvkwRCRMeftQNIY8,"Brunet Clinique J-M. Fontaine, M. Boucher Simard, pharm. prop. Affiliés",Rivière-du-Loup,CA,QC,G5R 1S5,+1 418-862-6344,,hospital,http://www.cliniplusrdl.com/,47.82962690000001,-69.53474299999999,1745790598,hospital,0,"[""4188621313""]","{""4188621313"": ""general communications related to the clinic's services""}"
Bas Saint Laurent,52864,MARTIN LAPLANTE OPTOMETRISTE,"15 AV DU PARC CP 910, AMQUI, QC, G5J 2L3",,174.0,EiUxNSBBdi4gZHUgUGFyYywgQW1xdWksIFFDIEc1SiwgQ2FuYWRhIjASLgoUChIJJTVu17P_lkwRDGv8egXBkwQQDyoUChIJ-wwl_Ln_lkwR5xT3ENegG1A,15 Av. du Parc,Amqui,CA,QC,G5J,,,pharmacy,,48.4638079,-67.43321689999999,1745790598,clinic,0,"[""4186294573""]","{""4186294573"": ""general administrative and patient-related communications""}"
Bas Saint Laurent,52906,CLINIQUE D'OPTOMETRIE DESROSIERS INC.,"283 DU BON-PASTEUR CP 393, MATANE, QC, G4W 3N3",,175.0,ChIJLananuHAlkwRZTux2PjhMNc,"Lise Fillion d.d., La Denturo de Matane",Matane,CA,QC,G4W 3A9,+1 418-562-5215,,hospital,http://www.ladenturo.com/,48.8453713,-67.5293143,1745790598,hospital,0,"[""4504349389""]","{""4504349389"": ""patient referrals, general inquiries""}"
Bas Saint Laurent,52948,CLINIQUE D'OPTOMETRIE PIERRE RIOUX INC,"634 RICHARD CP 1449, TROIS-PISTOLES, QC, G0L 4K0",,176.0,ChIJqagBqED1lUwRH9TV8PdTB_Q,Clinique D'Optometrie P Rioux,Trois-Pistoles,CA,QC,G0L 4K0,+1 418-851-4056,,hospital,http://www.cliniqueoptometriepierrerioux.ca/,48.12141829999999,-69.1653036,1745790598,hospital,0,"[""4188513003"", ""4188512789"", ""4188513926""]","{""4188512789"": ""general communications (primary/general inquiries)"", ""4188513926"": ""purpose not specified (unknown/alternative)"", ""4188513003"": ""purpose not specified (unknown/alternative)""}"
Bas Saint Laurent,52998,DENIS GAUTHIER OPTOMETRISTE,"346 SAINT-JEROME CP 430, MATANE, QC, G4W 3N3",,177.0,ChIJz9ZgX-DAlkwRD_NS1-ZAtsc,Denis Gauthier OD,Matane,CA,QC,G4W 3B1,,,hospital,,48.84591080000001,-67.52924349999999,1745790598,hospital,0,"[""6043664744""]","{""6043664744"": ""general inquiries (exact purpose not specified; likely general use unless otherwise confirmed by the clinic)""}"
Bas Saint Laurent,53160,GREICHE & SCAFF,"391-419 BOUL JESSOP, RIMOUSKI, QC, G5L 7Y5",,178.0,ChIJmedUXObZlUwR7wiSHESC-nA,Greiche & Scaff Rimouski,Rimouski,CA,QC,G5L 7Y5,+1 418-721-5050,,hospital,https://www.greiche-scaff.com/fr/stores/store/index/id/361/,48.46713039999999,-68.5119064,1745790598,hospital,0,"[""5143364581"", ""5142728193"", ""8197722554"", ""8195655613"", ""4186235782"", ""8193573592"", ""5146363378"", ""8197644504"", ""4502610727"", ""4506881779""]","{""5143364581"": ""general patient and administrative use"", ""5142728193"": ""general patient and administrative use"", ""8197722554"": ""general patient and administrative use"", ""8195655613"": ""general patient and administrative use"", ""4186235782"": ""general patient and administrative use"", ""8193573592"": ""general patient and administrative use"", ""5146363378"": ""general patient and administrative use"", ""8197644504"": ""general patient and administrative use"", ""4502610727"": ""general patient and administrative use"", ""4506881779"": ""general patient and administrative use""}"
Bas Saint Laurent,53173,BOURGET-JOLY O.D.,"70 SAINT-GERMAIN E, RIMOUSKI, QC, G5L 7J9",,179.0,ChIJm2YoEqTZlUwReVcGONGgd1o,Bourget et Joly Optométristes,Rimouski,CA,QC,G5L 8B3,+1 418-723-7127,,hospital,,48.4433933,-68.52123329999999,1745790598,hospital,0,"[""4187237127"", ""4187232020""]","{""4187237127"": ""general"", ""4187232020"": ""general""}"
Bas Saint Laurent,53234,IRIS CLINIQUE D'OPTOMETRIE R.D.L.,"116 LAFONTAINE, RIVIERE-DU-LOUP, QC, G5R 3A2",,180.0,ChIJRRQNWE1HvkwRKEKP56qRmNc,Clinique Visuelle Au Coin De L'Oeil,Rivière-du-Loup,CA,QC,G5R 1S5,+1 418-862-0220,,hospital,https://aucoindeloeil.ca/,47.82944579999999,-69.53488519999999,1745790598,hospital,0,"[""4506224597"", ""4188714622"", ""5143276561"", ""4185872911"", ""4185299722"", ""4186667893""]","{""4506224597"": ""** the available sources only specify these fax numbers for \""general communications for the clinic.\"" there is no evidence from the data that these numbers are reserved for specific purposes such as appointments, referrals, medical records, patient care, or billing. for any purpose-specific number, direct confirmation from the clinic is required."", ""4188714622"": ""** the available sources only specify these fax numbers for \""general communications for the clinic.\"" there is no evidence from the data that these numbers are reserved for specific purposes such as appointments, referrals, medical records, patient care, or billing. for any purpose-specific number, direct confirmation from the clinic is required."", ""5143276561"": ""** the available sources only specify these fax numbers for \""general communications for the clinic.\"" there is no evidence from the data that these numbers are reserved for specific purposes such as appointments, referrals, medical records, patient care, or billing. for any purpose-specific number, direct confirmation from the clinic is required."", ""4185872911"": ""** the available sources only specify these fax numbers for \""general communications for the clinic.\"" there is no evidence from the data that these numbers are reserved for specific purposes such as appointments, referrals, medical records, patient care, or billing. for any purpose-specific number, direct confirmation from the clinic is required."", ""4185299722"": ""** the available sources only specify these fax numbers for \""general communications for the clinic.\"" there is no evidence from the data that these numbers are reserved for specific purposes such as appointments, referrals, medical records, patient care, or billing. for any purpose-specific number, direct confirmation from the clinic is required."", ""4186667893"": ""** the available sources only specify these fax numbers for \""general communications for the clinic.\"" there is no evidence from the data that these numbers are reserved for specific purposes such as appointments, referrals, medical records, patient care, or billing. for any purpose-specific number, direct confirmation from the clinic is required.""}"
Bas Saint Laurent,53245,CENTRE VISUEL DES FRONTIERES,"1108 PRINCIPALE, POHENEGAMOOK, QC, G0L 1J0",,181.0,ChIJuyyMMOF_vkwR4Crldotsh14,Quincaillerie des Frontieres Hardware,Pohénégamook,CA,QC,G0L 1J0,+1 418-859-2901,,clinic,,47.4577146,-69.2281337,1745790598,clinic,0,"[""4188591273""]","{""4188591273"": ""general inquiries (unspecified purpose; likely used for all standard fax communications as only one fax number is listed)""}"
Bas Saint Laurent,53297,MARIE BANVILLE O.D.,"09A-80 SAINT-GERMAIN E, RIMOUSKI, QC, G5L 3H8",,182.0,ChIJ6Z5wBprZlUwRaRum8N3c9TE,Groupe Architecture MB Inc.,Rimouski,CA,QC,G5L 4B5,+1 418-721-3185,,pharmacy,https://www.rivearchitecture.ca/,48.44880200000001,-68.5341936,1745790598,clinic,0,"[""4187249050"", ""8197720328""]","{""4187249050"": ""general"", ""8197720328"": ""general""}"
Bas Saint Laurent,53301,PASCALE ROUSSEAU O.D.,"95B SAINT-GERMAIN O, RIMOUSKI, QC, G5L 4B6",,183.0,ChIJ-YiFNZfZlUwRBXGo56NhnFQ,Pascale Rousseau Opticienne,Rimouski,CA,QC,G5L 4B6,+1 418-723-4846,,hospital,http://www.pascalerousseauopticienne.com/,48.4494891,-68.53232059999999,1745790598,hospital,0,"[""4187234847""]","{""4187234847"": ""general inquiries""}"
Bas Saint Laurent,53305,NEWLOOK RIVIERE-DU-LOUP/T. CROTEAU,"60A-298 BOUL THERIAULT, RIVIERE-DU-LOUP, QC, G5R 4C2",,184.0,ChIJWcXqZUlHvkwRlQisYo-2KMA,Centre commercial Rivière-du-Loup,Rivière-du-Loup,CA,QC,G5R 4C2,+1 418-862-7848,,pharmacy,http://www.centrecommercialrdl.ca/,47.8238202,-69.5470638,1745790598,clinic,0,"[""4188625115""]","{""4188625115"": ""general inquiries (no specific departmental purpose publicly listed)""}"
Bas Saint Laurent,53396,IRIS CLINIQUE VISUELLE,"100-615 4E AVENUE, LA POCATIERE, QC, G0R 1Z0",,185.0,ChIJXYk77trlvkwRmfHgr9HoHgU,IRIS Optométristes et Opticiens - La Pocatière,La Pocatière,CA,QC,G0R 1Z0,+1 418-856-1522,,hospital,https://iris.ca/fr/trouver-une-boutique/la-pocatiere,47.3695332,-70.03584740000001,1745790598,hospital,0,"[""4188561523""]","{""4188561523"": ""general communications (general inquiries)""}"
Bas Saint Laurent,53512,3198 - WAL-MART (RIMOUSKI),"415 MONTEE INDUSTRIELLE-ET-COMMERCIALE, RIMOUSKI, QC, G5M 1Y1",,186.0,ChIJ_Zs_gErZlUwRgDSikxmfCAE,Walmart Supercentre,Rimouski,CA,QC,G5M 1Y1,+1 418-722-1990,,pharmacy,https://www.walmart.ca/en/stores-near-me/rimouski-store-3198?utm_source=local&utm_medium=listings&utm_campaign=sc&cmpid=gmb,48.4537309,-68.4978742,1745790598,clinic,0,"[""4187224998""]","{""4187224998"": ""general inquiries, admin""}"
Bas Saint Laurent,53684,LASER PRO VUE EST DU QUEBEC,"7-180 RUE DES GOUVERNEURS, RIMOUSKI, QC, G5L 8G1",,187.0,ChIJQ0UIEZXZlUwREs3Sc6cWfjI,LASER PROVUE,Rimouski,CA,QC,G5L 8G1,+1 418-723-5008,,hospital,http://www.laserprovue.com/,48.45587889999999,-68.5218158,1745790598,hospital,0,"[""4187210375"", ""4503724754""]","{""4187210375"": ""//www.profilecanada.com/companydetail.cfm?company=796483_laser_provue_de_lest_du_qubec_rimouski_qc&utm_source=openai)) the number **450-372-4754** is also associated with the clinic. ([openbiz.ca](https://openbiz.ca/industry/1203326-laser-pro-vue-de-lest-du-quebec/?utm_source=openai))"", ""4503724754"": ""//www.profilecanada.com/companydetail.cfm?company=796483_laser_provue_de_lest_du_qubec_rimouski_qc&utm_source=openai)) the number **450-372-4754** is also associated with the clinic. ([openbiz.ca](https://openbiz.ca/industry/1203326-laser-pro-vue-de-lest-du-quebec/?utm_source=openai))""}"
Bas Saint Laurent,54046,GMF LAFONTAINE,"242 LAFONTAINE, RIVIERE-DU-LOUP, QC, G5R 3A7",,188.0,ChIJ-0d75FNHvkwRJe4ms8F-9lc,Centre Médical De Riviere-Du-Loup Inc,Rivière-du-Loup,CA,QC,G5R 2V3,+1 418-862-3110,,hospital,https://www.gmflafontaine.com/,47.8328828,-69.53458429999999,1745790598,hospital,0,"[""4188629656""]","{""4188629656"": ""general inquiries (main clinic fax; may be used for various general purposes, as specific departmental faxes are not listed)""}"
Bas Saint Laurent,54060,CENTRE MEDICAL DE LA VALLEE,"1-22 RUE DU PONT, AMQUI, QC, G5J 3T5",,189.0,ChIJ3QPMmbP_lkwRRJwA3OE_-y8,Centre Medical De La Vallee,Amqui,CA,QC,G5J 3T5,+1 418-629-6611,,hospital,,48.46510099999999,-67.430995,1745790598,hospital,0,"[""4187273818""]","{""4187273818"": ""general inquiries""}"
Bas Saint Laurent,54061,CLINIQUE MEDICALE DE CAUSAPSCAL,"34 SAINT-JEAN-BAPTISTE, CAUSAPSCAL, QC, G0J 1J0",,190.0,ChIJJeR7Unaol0wRtXJ-OomqqF0,Clinique Jacynthe Vallee,Causapscal,CA,QC,G0J 1J0,+1 418-756-3421,,hospital,,48.3548546,-67.2250851,1745790598,hospital,0,"[""4187566024"", ""4184393965""]","{""4187566024"": ""general communications (general clinic)"", ""4184393965"": ""purpose not specified""}"
Bas Saint Laurent,54062,CLINIQUE MEDICALE DE SAYABEC,"99A DE L'EGLISE CP 70, SAYABEC, QC, G0J 3K0",,191.0,ChIJG4_YyFXxlkwRpfmsrU7v4gA,CLSC De La Vallee,Sayabec,CA,QC,G0J 3K0,+1 418-536-5404,,hospital,https://www.cisss-bsl.gouv.qc.ca/,48.5645713,-67.6871871,1745790598,hospital,0,"[""4185363684""]","{""4185363684"": ""general inquiries (specific purpose not specified in the available information; commonly used for general communications at clscs)""}"
Bas Saint Laurent,54112,CLINIQUE DE MEDECINE FAMILIALE,"201-160 RUE DE L'EVECHE O, RIMOUSKI, QC, G5L 9H4",,192.0,ChIJKwq3KZrZlUwRsZazrR20ZUY,Clinique de Médecine Familiale,Rimouski,CA,QC,G5L 9H4,+1 418-723-5272,,hospital,,48.44499949999999,-68.53007869999999,1745790598,hospital,0,"[""8195373489"", ""4187482525"", ""4185426541""]","{""8195373489"": ""**"", ""4187482525"": ""**"", ""4185426541"": ""**""}"
Bas Saint Laurent,54133,CLINIQUE MEDICALE FRONTENAC,"24 RUE FRONTENAC, RIVIERE-DU-LOUP, QC, G5R 1S5",,193.0,ChIJGw9Er1JHvkwRCaYivhBTILg,Clinique Medicale Frontenac,Rivière-du-Loup,CA,QC,G5R 1S5,+1 418-862-0333,,hospital,,47.8296873,-69.5347032,1745790598,hospital,0,"[""418-868-0505"", ""4188680505""]","{""418-868-0505"": ""general inquiries"", ""4188680505"": ""general inquiries""}"
Bas Saint Laurent,54134,CLINIQUE MEDICALE DE CACOUNA,"535 RUE DU PATRIMOINE, CACOUNA, QC, G0L 1G0",,194.0,ChIJ-abCUd47vkwRlOof2SNT5kI,Clinique Medicale Cacouna,Cacouna,CA,QC,G0L 1G0,+1 418-862-2170,,hospital,https://www.bonjour-sante.ca/Repertoire/M%C3%A9decins%20de%20famille/Cacouna/,47.909274,-69.50865879999999,1745790598,hospital,0,"[""4188622506""]","{""4188622506"": ""general inquiries / administrative (exact specific purpose not specified; likely used for general clinic communication including referrals, medical records, and administrative tasks)""}"
Bas Saint Laurent,54187,CLINIQUE MEDICALE DE MONT-JOLI,"1385 BOUL BENOIT-GABOURY, MONT-JOLI, QC, G5H 4B1",,195.0,ChIJq6HZqa6AlkwRac-9V0PsJHA,Clinique Médicale de Mont-Joli Enr,Mont-Joli,CA,QC,G5H 4B1,+1 418-775-5353,,hospital,https://cisss-bsl.gouv.qc.ca/,48.587429,-68.197941,1745790598,hospital,0,"[""4187750025""]","{""4187750025"": ""general inquiries""}"
Bas Saint Laurent,54190,CLINIQUE MEDICALE DE SQUATEC,"B-149 SAINT-JOSEPH, SQUATEC, QC, G0L 4H0",,196.0,ChIJ5ax2c237vUwR97GYAdHYDT4,Clinique Medicale-Squatec,Saint-Michel-du-Squatec,CA,QC,G0L 4H0,+1 418-855-2233,,hospital,http://www.cisss-bsl.gouv.qc.ca/,47.8818225,-68.71969419999999,1745790598,hospital,0,"[""4188552288""]","{""4188552288"": ""general inquiries / general operations""}"
Bas Saint Laurent,54191,CLINIQUE MEDICALE CABANO,"101-825 RUE COMMERCIALE N, TEMISCOUATA-SUR-LE-LAC, QC, G0L 1E0",,197.0,ChIJ98o07cjdvUwRx_Jx4iI-hv4,Clinique Medicale Cabano,Témiscouata-sur-le-Lac,CA,QC,G0L 1E0,+1 418-854-2762,,hospital,https://bonjour-sante.ca/uno/clinique/cmcabano,47.6836409,-68.87980209999999,1745790598,hospital,0,[],{}
Bas Saint Laurent,54192,CLINIQUE MEDICALE DU LAC TEMIS,"102-2387 RUE COMMERCIALE S, TEMISCOUATA-SUR-LE-LAC, QC, G0L 1X0",,198.0,ChIJY6W0sZ7EvUwRe8fBMt9CSUE,GMF De Temiscouata,Témiscouata-sur-le-Lac,CA,QC,G0L 1X0,+1 418-899-6703,,hospital,https://www.cisss-bsl.gouv.qc.ca/noindex-services/gmf-hopital-de-notre-dame-du-lac,47.6136679,-68.7991382,1745790598,hospital,0,"[""4188992809""]","{""4188992809"": ""general inquiries (and possibly shared for multiple purposes such as referrals, medical records, or administration, since specific department fax numbers are not listed)""}"
Bas Saint Laurent,54292,CLINIQUE MEDICALE ST REDEMPTEUR,"226 RUE THIBAULT, MATANE, QC, G4W 2V9",,199.0,ChIJlw1dbyDBlkwRYmJoQNTsuag,Clinique Médicale St-Rédempteur,Matane,CA,QC,G4W 2V9,+1 418-562-6133,,hospital,,48.84778149999999,-67.522965,1745790598,hospital,0,[],{}
Bas Saint Laurent,54293,CLINIQUE MEDICALE DE MATANE,"548 AV DU PHARE E, MATANE, QC, G4W 1A7",,200.0,ChIJD_bNeSbBlkwRsrjTXA6J7XM,Clinique Medicale De Matane,Matane,CA,QC,G4W 1A7,+1 418-562-4530,,hospital,https://sante.gouv.qc.ca/repertoire-ressources/ressource/?nofiche=42068,48.8525654,-67.512269,1745790598,hospital,0,[],{}
Bas Saint Laurent,54298,CLINIQUE MEDICALE DE LA MITIS,"26 RUE LEPAGE, MONT JOLI, QC, G5H 1R2",,201.0,ChIJq6HZqa6AlkwRac-9V0PsJHA,Clinique Médicale de Mont-Joli Enr,Mont-Joli,CA,QC,G5H 4B1,+1 418-775-5353,,hospital,https://cisss-bsl.gouv.qc.ca/,48.587429,-68.197941,1745790598,hospital,0,"[""4187753379""]","{""4187753379"": ""appointments (specifically for faxing prescriptions for appointments at the centre hospitalier de la mitis)""}"
Bas Saint Laurent,54331,CLINIQUE MEDICALE DU DR ALAIN DAIGLE,"139 RUE J.-ROMUALD-BERUBE, RIMOUSKI, QC, G0L 1B0",,202.0,ChIJR46oCxbdlUwRVgsHuJmEpsg,GMF Du Fleuve,Rimouski,CA,QC,G0L 1B0,+1 418-736-4440,,hospital,http://www.sante.gouv.qc.ca/repertoire-ressources/ressource/?nofiche=30965,48.3731065,-68.7099008,1745790598,hospital,0,"[""4187364654""]","{""4187364654"": ""general inquiries (primary fax number; specific department or specialized use not indicated)""}"
Bas Saint Laurent,54375,DR JEAN HUDON,"209 RUE DE LA MONTAGNE, LA POCATIERE, QC, G0R 1Z0",,203.0,ChIJwWD-19flvkwR4LnQvlusd9M,Dr Jean Hudon,La Pocatière,CA,QC,G0R 1Z0,+1 418-856-4292,,hospital,https://bonjour-sante.ca/uno/clinique/drjeanhudon,47.3612406,-70.0497373,1745790598,hospital,0,[],{}
Bas Saint Laurent,54455,CLINIQUE MEDICALE LAC-DES-AIGLES,"74 RUE PRINCIPALE, LAC-DES-AIGLES, QC, G0K 1V0",,204.0,ChIJX1T8IVn_vUwRpnLt2SeB9t4,CLSC de Lac-des-Aigles,Lac-des-Aigles,CA,QC,G0K 1V0,+1 418-779-2572,,clinic,http://www.cisss-bsl.gouv.qc.ca/,47.9883983,-68.6767052,1745790598,clinic,0,"[""4187792744"", ""4187792305""]","{""4187792305"": ""general (clinique m\u00e9dicale de lac-des-aigles; specific departmental use not detailed, likely general administrative or medical correspondence)"", ""4187792744"": ""general (clsc de lac-des-aigles; likely used for general administrative and patient care correspondence related to their public health services such as blood tests, vaccinations, and health card renewals)""}"
Bas Saint Laurent,55004,CLINIQUE MEDICALE DU PHARE,"101-822 BOUL SAINTE-ANNE, RIMOUSKI, QC, G5M 1J5",,205.0,ChIJ74ROPR3XlUwRAyryXy9gGqQ,Clinique Médicale du Phare,Rimouski,CA,QC,G5M 1J5,+1 418-723-5135,,hospital,https://www.gmfdufleuve.com/clinique-medicale-du-phare,48.506237,-68.46664419999999,1745790598,hospital,0,"[""4187242251""]","{""4187242251"": ""//www.gmfdufleuve.com/index.php/clinique-medicale-du-phare?utm_source=openai)) however, the specific purposes for this fax number, such as whether it's used for general inquiries, appointments, referrals, medical records, patient care, administration, billing, etc., are not specified in the available information. for detailed information regarding departmental fax numbers and their purposes, i recommend contacting the clinic directly at 418-723-5135.""}"
Bas Saint Laurent,55078,CLINIQUE MEDICALE ARTHUR-BUIES,"200-351 RUE ALCIDE-C.-HORTH, RIMOUSKI, QC, G5M 0K2",,206.0,ChIJ4bOvxAfZlUwRnUspfV-hhSo,Clinique Médicale Arthur-Buies,Rimouski,CA,QC,G5M 0K2,+1 418-722-6816,,hospital,https://www.sante.gouv.qc.ca/repertoire-ressources/ressource/?nofiche=40896,48.4502975,-68.5094622,1745790598,hospital,0,"[""4187213262""]","{""4187213262"": ""general inquiries (purpose not specifically defined; likely used for general administrative functions or for handling documents such as referrals, medical records, or appointment confirmations, but confirmation is required directly from the clinic)""}"
Bas Saint Laurent,55134,CLINIQUE MEDICALE LA POCATIERE,"1200 6E AVENUE, LA POCATIERE, QC, G0R 1Z0",,207.0,ChIJaRWF1sPlvkwRthFadv0hlK4,Clinique Medicale La Pocatiere,La Pocatière,CA,QC,G0R 1Z0,+1 418-856-4647,,hospital,https://gmfkamouraska.com/,47.37237589999999,-70.0281416,1745790598,hospital,0,"[""5148640191""]","{""5148640191"": ""unknown (purpose not clearly specified; could be general, admin, or medical, but reliability and specific use cannot be confirmed\u2014recommended to contact clinic directly for details)""}"
Bas Saint Laurent,55182,CLINIQUE MEDICALE ST-FABIEN,"115 RUE 1RE C.P.310, ST-FABIEN, QC, G0L 2Z0",,208.0,ChIJFYOafNXolUwRRPKwwnPZsV4,Clinique médicale de St-Fabien,Saint-Fabien,CA,QC,G0L 2Z0,+1 418-869-2142,,hospital,https://www.gmfdufleuve.com/clinique-medicale-de-st-fabien,48.29577599999999,-68.86620669999999,1745790598,hospital,0,"[""4188693632""]","{""4188693632"": ""general (purpose not specified; likely used for general medical or administrative communications)""}"
Bas Saint Laurent,55188,COOPERATIVE SOLIDARITE SANTE DES GENS D'ICI,"B-200 BOUL PERRON C.P. 158, SAINTE-FELICITE, QC, G0J 2K0",,209.0,ChIJm3th3nDFlkwRQodQ-k4msvs,La Cooperative Solidarite Sante Des Gens D'Ici,Sainte-Félicité,CA,QC,G0J 2K0,+1 418-733-1337,,hospital,https://bonjour-sante.ca/uno/clinique/coopsolidaritesdesgensdici,48.9013061,-67.3380966,1745790598,hospital,0,[],{}
Bas Saint Laurent,55189,CLINIQUE MEDICALE SAINT-PASCAL,"565 TACHE, SAINT-PASCAL, QC, G0L 3Y0",,210.0,ChIJu4r4vFD2vkwRsE4iN7P38mE,Clinique Medicale St-Pascal,Saint-Pascal,CA,QC,G0L 3Y0,+1 418-492-2148,,hospital,https://gmfkamouraska.com/,47.5267791,-69.8054885,1745790598,hospital,0,"[""4184926221""]","{""4184926221"": ""general inquiries (and possibly general clinic communications, as no specific departmental purposes are publicly listed)""}"
Bas Saint Laurent,55230,CLINIQUE MEDICALE DU BOISE LANGEVIN,"130-288 PIERRE SAINDON, RIMOUSKI, QC, G5L 9A8",,211.0,ChIJj8v-4qLZlUwRuH8eINE2Y1Q,Clinique de Phlébologie Boisé Langevin,Rimouski,CA,QC,G5L 9A8,+1 418-724-4672,,hospital,,48.4448488,-68.5247826,1745790598,hospital,0,"[""4187244753""]","{""4187244753"": ""418-724-4672. ([cisss-bsl.gouv.qc.ca](https://www.cisss-bsl.gouv.qc.ca/par-site/10/gmf-du-boise-langevin-clinique-medicale-du-boise-langevin/?utm_source=openai))""}"
Bas Saint Laurent,55264,CLINIQUE PEDIATRIQUE DE RIMOUSKI,"161 AV ROULEAU, RIMOUSKI, QC, G5L 5T3",,212.0,ChIJSaZsoEHZlUwRs3PncWQmwNw,Centre de Pédiatrie sociale en communauté de Rimouski-Neigette,Rimouski,CA,QC,G5L 7R4,+1 418-722-0087,,clinic,https://lepetitrepere.ca/,48.4426098,-68.5344284,1745790598,clinic,0,[],{}
Bas Saint Laurent,55461,CLINIQUE BORDELEAU,"186 BOUL HOTEL-DE-VILLE, RIVIERE-DU LOUP, QC, G5R 4S2",,213.0,ChIJIf5-WThHvkwR0jcHFT--cok,Clinique Bordeleau,Rivière-du-Loup,CA,QC,G5R 4S2,+1 418-605-1100,,hospital,http://www.cliniquebordeleau.com/,47.83053379999999,-69.5456106,1745790598,hospital,0,"[""4188558205""]","{""4188558205"": ""//sante.gouv.qc.ca/repertoire-ressources/ressource/?bt_rechtype=&ch_choixreg=&ch_code=&ch_rayon=0&ch_type=&nofiche=989598&page=532&theme=autres-ressources&utm_source=openai)) however, specific details regarding the purpose of this fax number (e.g., general inquiries, appointments, referrals, medical records, patient care, administration, billing) are not readily available in the provided sources. for precise information, i recommend contacting the clinic directly at 418-605-1100.""}"
